$GPGGA,094309.71,5001.2457,N,03613.0683,E,0,04,1.8,136.1,M,11.6,M,,*68

$GPRMC,094309.71,V,5001.2457,N,03613.0683,E,0.05,43.91,250706,6.5,W,N*0B

$GPGSA,A,1,04,10,16,27,,,,,,,,,3.2,1.8,2.6*3B

$GPGGA,094309.71,5001.2457,N,03613.0683,E,0,04,1.8,136.1,M,11.6,M,,*68

$GPRMC,094309.71,V,5001.2457,N,03613.0683,E,0.05,43.91,250706,6.5,W,N*0B

$GPGSA,A,1,04,10,16,27,,,,,,,,,3.2,1.8,2.6*3B

$GPGGA,094309.71,5001.2457,N,03613.0683,E,0,04,1.8,136.1,M,11.6,M,,*68

$GPRMC,094309.71,V,5001.2457,N,03613.0683,E,0.05,43.91,250706,6.5,W,N*0B

$GPGSA,A,1,04,10,16,27,,,,,,,,,3.2,1.8,2.6*3B

$GPGGA,094309.71,5001.2457,N,03613.0683,E,0,04,1.8,136.1,M,11.6,M,,*68

$GPRMC,094309.71,V,5001.2457,N,03613.0683,E,0.05,43.91,250706,6.5,W,N*0B

$GPGSA,A,1,04,10,16,27,,,,,,,,,3.2,1.8,2.6*3B

$GPGGA,094309.71,5001.2457,N,03613.0683,E,0,04,1.8,136.1,M,11.6,M,,*68

$GPRMC,094309.71,V,5001.2457,N,03613.0683,E,0.05,43.91,250706,6.5,W,N*0B

$GPGSA,A,1,04,10,16,27,,,,,,,,,3.2,1.8,2.6*3B

$GPGGA,094309.71,5001.2457,N,03613.0683,E,0,04,1.8,136.1,M,11.6,M,,*68

$GPRMC,094309.71,V,5001.2457,N,03613.0683,E,0.05,43.91,250706,6.5,W,N*0B

$GPGSA,A,1,04,10,16,27,,,,,,,,,3.2,1.8,2.6*3B

$GPGGA,094309.71,5001.2457,N,03613.0683,E,0,04,1.8,136.1,M,11.6,M,,*68

$GPRMC,094309.71,V,5001.2457,N,03613.0683,E,0.05,43.91,250706,6.5,W,N*0B

$GPGSA,A,1,04,10,16,27,,,,,,,,,3.2,1.8,2.6*3B

$GPGGA,094309.71,5001.2457,N,03613.0683,E,0,04,1.8,136.1,M,11.6,M,,*68

$GPRMC,094309.71,V,5001.2457,N,03613.0683,E,0.05,43.91,250706,6.5,W,N*0B

$GPGSA,A,1,04,10,16,27,,,,,,,,,3.2,1.8,2.6*3B

$GPGGA,094309.71,5001.2457,N,03613.0683,E,0,04,1.8,136.1,M,11.6,M,,*68

$GPRMC,094309.71,V,5001.2457,N,03613.0683,E,0.05,43.91,250706,6.5,W,N*0B

$GPGSA,A,1,04,10,16,27,,,,,,,,,3.2,1.8,2.6*3B

$GPGGA,094309.71,5001.2457,N,03613.0683,E,0,04,1.8,136.1,M,11.6,M,,*68

$GPRMC,094309.71,V,5001.2457,N,03613.0683,E,0.05,43.91,250706,6.5,W,N*0B

$GPGSA,A,1,04,10,16,27,,,,,,,,,3.2,1.8,2.6*3B

$GPGGA,094309.71,5001.2457,N,03613.0683,E,0,04,1.8,136.1,M,11.6,M,,*68

$GPRMC,094309.71,V,5001.2457,N,03613.0683,E,0.05,43.91,250706,6.5,W,N*0B

$GPGSA,A,1,04,10,16,27,,,,,,,,,3.2,1.8,2.6*3B

$GPGGA,094309.71,5001.2457,N,03613.0683,E,0,04,1.8,136.1,M,11.6,M,,*68

$GPRMC,094309.71,V,5001.2457,N,03613.0683,E,0.05,43.91,250706,6.5,W,N*0B

$GPGSA,A,1,04,10,16,27,,,,,,,,,3.2,1.8,2.6*3B

$GPGGA,094309.71,5001.2457,N,03613.0683,E,0,04,1.8,136.1,M,11.6,M,,*68

$GPRMC,094309.71,V,5001.2457,N,03613.0683,E,0.05,43.91,250706,6.5,W,N*0B

$GPGSA,A,1,04,10,16,27,,,,,,,,,3.2,1.8,2.6*3B

$GPGGA,094309.71,5001.2457,N,03613.0683,E,0,04,1.8,136.1,M,11.6,M,,*68

$GPRMC,094309.71,V,5001.2457,N,03613.0683,E,0.05,43.91,250706,6.5,W,N*0B

$GPGSA,A,1,04,10,16,27,,,,,,,,,3.2,1.8,2.6*3B

$GPGGA,094309.71,5001.2457,N,03613.0683,E,0,04,1.8,136.1,M,11.6,M,,*68

$GPRMC,094309.71,V,5001.2457,N,03613.0683,E,0.05,43.91,250706,6.5,W,N*0B

$GPGSA,A,1,04,10,16,27,,,,,,,,,3.2,1.8,2.6*3B
$GPRMC,094309.71,V,5001.2457,N,03613.0683,E,0.05,43.91,250706,6.5,W,N*0B

$GPGSA,A,1,04,10,16,27,,,,,,,,,3.2,1.8,2.6*3B

$GPGSV,1,1,01,04,00,000,36*49

$GPGGA,094309.71,5001.2457,N,03613.0683,E,0,04,1.8,136.1,M,11.6,M,,*68

$GPRMC,094309.71,V,5001.2457,N,03613.0683,E,0.05,43.91,250706,6.5,W,N*0B

$GPGSA,A,1,04,10,16,27,,,,,,,,,3.2,1.8,2.6*3B

$GPGSV,1,1,02,04,00,000,34,08,00,000,34*77

$GPGGA,094309.71,5001.2457,N,03613.0683,E,0,04,1.8,136.1,M,11.6,M,,*68

$GPRMC,094309.71,V,5001.2457,N,03613.0683,E,0.05,43.91,250706,6.5,W,N*0B

$GPGSA,A,1,04,10,16,27,,,,,,,,,3.2,1.8,2.6*3B

$GPGSV,1,1,03,04,00,000,34,08,00,000,37,27,00,000,37*44

$GPGGA,094309.71,5001.2457,N,03613.0683,E,0,04,1.8,136.1,M,11.6,M,,*68

$GPRMC,094309.71,V,5001.2457,N,03613.0683,E,0.05,43.91,250706,6.5,W,N*0B

$GPGSA,A,1,04,10,16,27,,,,,,,,,3.2,1.8,2.6*3B

$GPGSV,1,1,04,04,00,000,38,08,00,000,39,13,00,000,35,27,00,000,36*74

$GPGGA,094309.71,5001.2457,N,03613.0683,E,0,04,1.8,136.1,M,11.6,M,,*68

$GPRMC,094309.71,V,5001.2457,N,03613.0683,E,0.05,43.91,250706,6.5,W,N*0B

$GPGSA,A,1,04,10,16,27,,,,,,,,,3.2,1.8,2.6*3B

$GPGSV,1,1,04,04,00,000,38,08,00,000,39,13,00,000,34,27,00,000,36*75

$GPGGA,094309.71,5001.2457,N,03613.0683,E,0,04,1.8,136.1,M,11.6,M,,*68

$GPRMC,094309.71,V,5001.2457,N,03613.0683,E,0.05,43.91,250706,6.5,W,N*0B

$GPGSA,A,1,04,10,16,27,,,,,,,,,3.2,1.8,2.6*3B

$GPGSV,1,1,04,04,00,000,40,08,00,000,39,13,00,000,34,27,00,000,36*7A

$GPGGA,094309.71,5001.2457,N,03613.0683,E,0,04,1.8,136.1,M,11.6,M,,*68

$GPRMC,094309.71,V,5001.2457,N,03613.0683,E,0.05,43.91,250706,6.5,W,N*0B

$GPGSA,A,1,04,10,16,27,,,,,,,,,3.2,1.8,2.6*3B

$GPGSV,1,1,04,04,00,000,37,08,00,000,40,13,00,000,32,27,00,000,36*72

$GPGGA,094309.71,5001.2457,N,03613.0683,E,0,04,1.8,136.1,M,11.6,M,,*68

$GPRMC,094309.71,V,5001.2457,N,03613.0683,E,0.05,43.91,250706,6.5,W,N*0B

$GPGSA,A,1,04,10,16,27,,,,,,,,,3.2,1.8,2.6*3B

$GPGSV,1,1,04,04,00,000,37,08,00,000,40,13,00,000,32,27,00,000,35*71

$GPGGA,094309.71,5001.2457,N,03613.0683,E,0,04,1.8,136.1,M,11.6,M,,*68

$GPRMC,094309.71,V,5001.2457,N,03613.0683,E,0.05,43.91,250706,6.5,W,N*0B

$GPGSA,A,1,04,10,16,27,,,,,,,,,3.2,1.8,2.6*3B

$GPGSV,1,1,04,04,00,000,40,08,00,000,38,13,00,000,30,27,00,000,35*7C

$GPGGA,094309.71,5001.2457,N,03613.0683,E,0,04,1.8,136.1,M,11.6,M,,*68

$GPRMC,094309.71,V,5001.2457,N,03613.0683,E,0.05,43.91,250706,6.5,W,N*0B

$GPGSA,A,1,04,10,16,27,,,,,,,,,3.2,1.8,2.6*3B

$GPGSV,1,1,04,04,00,000,40,08,00,000,39,13,00,000,31,27,00,000,35*7C

$GPGGA,094309.71,5001.2457,N,03613.0683,E,0,04,1.8,136.1,M,11.6,M,,*68

$GPRMC,094309.71,V,5001.2457,N,03613.0683,E,0.05,43.91,250706,6.5,W,N*0B

$GPGSA,A,1,04,10,16,27,,,,,,,,,3.2,1.8,2.6*3B

$GPGSV,1,1,04,04,00,000,40,08,00,000,39,13,00,000,31,27,00,000,35*7C

$GPGGA,094309.71,5001.2457,N,03613.0683,E,0,04,1.8,136.1,M,11.6,M,,*68

$GPRMC,094309.71,V,5001.2457,N,03613.0683,E,0.05,43.91,250706,6.5,W,N*0B

$GPGSA,A,1,04,10,16,27,,,,,,,,,3.2,1.8,2.6*3B

$GPGSV,1,1,04,04,00,000,38,08,00,000,40,13,00,000,31,27,00,000,35*7D

$GPGGA,095838.81,5001.2510,N,03613.0947,E,1,04,16.0,163.7,M,11.6,M,,*53

$GPRMC,095838.81,A,5001.2510,N,03613.0947,E,2.17,208.45,250706,6.5,W,A*24

$GPGSA,A,3,04,08,13,27,,,,,,,,,16.4,16.0,3.6*38

$GPGSV,2,1,08,02,19,270,00,04,12,235,36,07,06,040,00,08,34,231,39*7B

$GPGSV,2,2,08,10,22,314,00,13,69,084,32,16,19,041,00,27,66,234,37*78

$GPGGA,095840.00,5001.2508,N,03613.0939,E,1,04,13.6,163.8,M,11.6,M,,*59

$GPRMC,095840.00,A,5001.2508,N,03613.0939,E,1.84,254.48,250706,6.5,W,A*2F

$GPGSA,A,3,04,08,13,27,,,,,,,,,13.6,13.6,1.0*38

$GPGSV,2,1,08,02,19,270,00,04,12,235,36,07,06,040,00,08,34,231,39*7B

$GPGSV,2,2,08,10,22,314,00,13,69,084,32,16,19,041,00,27,66,234,36*79

$GPGGA,095841.00,5001.2505,N,03613.0929,E,1,04,13.6,164.5,M,11.6,M,,*5E

$GPRMC,095841.00,A,5001.2505,N,03613.0929,E,2.43,203.72,250706,6.5,W,A*21

$GPGSA,A,3,04,08,13,27,,,,,,,,,13.6,13.6,1.0*38

$GPGSV,2,1,08,02,19,270,38,04,12,235,35,07,06,040,00,08,34,231,41*7C

$GPGSV,2,2,08,10,22,314,00,13,69,084,31,16,19,041,00,27,66,234,36*7A

$GPGGA,095842.00,5001.2498,N,03613.0919,E,1,04,13.6,164.8,M,11.6,M,,*56

$GPRMC,095842.00,A,5001.2498,N,03613.0919,E,2.14,213.60,250706,6.5,W,A*24

$GPGSA,A,3,04,08,13,27,,,,,,,,,13.6,13.6,1.0*38

$GPGSV,2,1,08,02,19,270,36,04,12,235,35,07,06,040,00,08,34,231,41*72

$GPGSV,2,2,08,10,22,314,00,13,69,084,32,16,19,041,00,27,66,234,36*79

$GPGGA,095843.00,5001.2498,N,03613.0903,E,1,04,2.7,164.7,M,11.6,M,,*62

$GPRMC,095843.00,A,5001.2498,N,03613.0903,E,2.13,249.48,250706,6.5,W,A*2C

$GPGSA,A,3,02,08,13,27,,,,,,,,,2.9,2.7,1.0*30

$GPGSV,2,1,08,02,19,270,41,04,12,235,30,07,06,040,00,08,34,231,40*76

$GPGSV,2,2,08,10,22,314,00,13,69,084,29,16,19,041,00,27,66,234,35*70

$GPGGA,095843.00,5001.2498,N,03613.0903,E,0,04,2.7,164.7,M,11.6,M,,*63

$GPRMC,095843.00,V,5001.2498,N,03613.0903,E,2.13,249.48,250706,6.5,W,N*34

$GPGSA,A,1,02,08,13,27,,,,,,,,,2.9,2.7,1.0*32

$GPGSV,2,1,08,02,19,270,39,04,12,235,30,07,06,040,00,08,34,231,39*77

$GPGSV,2,2,08,10,22,314,00,13,69,084,31,16,19,041,00,27,66,234,36*7A

$GPGGA,095843.00,5001.2498,N,03613.0903,E,0,04,2.7,164.7,M,11.6,M,,*63

$GPRMC,095843.00,V,5001.2498,N,03613.0903,E,2.13,249.48,250706,6.5,W,N*34

$GPGSA,A,1,02,08,13,27,,,,,,,,,2.9,2.7,1.0*32

$GPGSV,2,1,08,02,19,270,39,04,12,235,33,07,06,040,00,08,34,231,39*74

$GPGSV,2,2,08,10,22,314,00,13,69,084,31,16,19,041,00,27,66,234,36*7A

$GPGGA,095847.00,5001.2512,N,03613.0870,E,1,05,2.8,163.1,M,11.6,M,,*6F

$GPRMC,095847.00,A,5001.2512,N,03613.0870,E,2.10,256.94,250706,6.5,W,A*22

$GPGSA,A,3,02,04,08,13,27,,,,,,,,4.1,2.8,3.0*37

$GPGSV,2,1,08,02,19,270,37,04,12,235,32,07,06,040,00,08,34,231,41*74

$GPGSV,2,2,08,10,22,314,00,13,69,084,31,16,19,041,00,27,66,234,36*7A

$GPGGA,095848.00,5001.2513,N,03613.0862,E,1,04,13.5,163.5,M,11.6,M,,*5A

$GPRMC,095848.00,A,5001.2513,N,03613.0862,E,1.99,222.17,250706,6.5,W,A*25

$GPGSA,A,3,04,08,13,27,,,,,,,,,13.5,13.5,1.0*38

$GPGSV,2,1,08,02,19,270,39,04,12,235,32,07,06,040,00,08,34,231,40*7B

$GPGSV,2,2,08,10,22,314,00,13,69,084,30,16,19,041,00,27,66,234,36*7B

$GPGGA,095849.00,5001.2502,N,03613.0857,E,1,04,13.5,163.5,M,11.6,M,,*5D

$GPRMC,095849.00,A,5001.2502,N,03613.0857,E,2.64,193.25,250706,6.5,W,A*2B

$GPGSA,A,3,04,08,13,27,,,,,,,,,13.5,13.5,1.0*38

$GPGSV,2,1,08,02,19,270,39,04,12,235,35,07,06,040,00,08,34,231,40*7C

$GPGSV,2,2,08,10,22,314,00,13,69,084,30,16,19,041,00,27,66,234,35*78

$GPGGA,095850.00,5001.2494,N,03613.0850,E,1,04,13.5,163.4,M,11.6,M,,*5D

$GPRMC,095850.00,A,5001.2494,N,03613.0850,E,2.14,208.50,250706,6.5,W,A*2E

$GPGSA,A,3,04,08,13,27,,,,,,,,,13.5,13.5,1.0*38

$GPGSV,2,1,08,02,19,270,41,04,12,235,36,07,06,040,00,08,34,231,40*70

$GPGSV,2,2,08,10,22,314,00,13,69,084,30,16,19,041,00,27,66,234,35*78

$GPGGA,095851.00,5001.2457,N,03613.0815,E,1,04,13.5,165.9,M,11.6,M,,*59

$GPRMC,095851.00,A,5001.2457,N,03613.0815,E,2.72,201.56,250706,6.5,W,A*2E

$GPGSA,A,3,04,08,13,27,,,,,,,,,13.5,13.5,1.0*38

$GPGSV,2,1,08,02,19,270,36,04,12,235,36,07,06,040,00,08,34,231,39*7E

$GPGSV,2,2,08,10,22,314,00,13,69,084,30,16,19,041,00,27,66,234,35*78

$GPGGA,095852.00,5001.2330,N,03613.0939,E,1,04,13.5,163.8,M,11.6,M,,*54

$GPRMC,095852.00,A,5001.2330,N,03613.0939,E,5.62,171.29,250706,6.5,W,A*2E

$GPGSA,A,3,04,08,13,27,,,,,,,,,13.5,13.5,1.0*38

$GPGSV,2,1,08,02,19,270,36,04,12,235,37,07,06,040,00,08,34,231,39*7F

$GPGSV,2,2,08,10,22,314,00,13,69,084,32,16,19,041,00,27,66,234,35*7A

$GPGGA,095853.00,5001.2292,N,03613.0961,E,1,04,13.5,163.2,M,11.6,M,,*5B

$GPRMC,095853.00,A,5001.2292,N,03613.0961,E,5.68,170.94,250706,6.5,W,A*26

$GPGSA,A,3,04,08,13,27,,,,,,,,,13.5,13.5,1.0*38

$GPGSV,2,1,08,02,19,270,38,04,12,235,37,07,06,040,00,08,34,231,38*70

$GPGSV,2,2,08,10,22,314,00,13,69,084,32,16,19,041,00,27,66,234,35*7A

$GPGGA,095854.00,5001.2288,N,03613.0956,E,1,04,13.5,163.5,M,11.6,M,,*54

$GPRMC,095854.00,A,5001.2288,N,03613.0956,E,2.74,195.86,250706,6.5,W,A*2C

$GPGSA,A,3,04,08,13,27,,,,,,,,,13.5,13.5,1.0*38

$GPGSV,2,1,08,02,19,270,42,04,12,235,37,07,06,040,00,08,34,231,38*7D

$GPGSV,2,2,08,10,22,314,00,13,68,084,32,16,19,041,00,27,66,234,35*7B

$GPGGA,095855.00,5001.2276,N,03613.0948,E,1,04,13.5,162.5,M,11.6,M,,*5A

$GPRMC,095855.00,A,5001.2276,N,03613.0948,E,3.77,187.64,250706,6.5,W,A*2E

$GPGSA,A,3,04,08,13,27,,,,,,,,,13.5,13.5,1.0*38

$GPGSV,2,1,08,02,19,270,42,04,12,235,33,07,06,040,00,08,34,231,38*79

$GPGSV,2,2,08,10,22,314,00,13,68,084,32,16,19,041,00,27,66,234,36*78

$GPGGA,095856.00,5001.2276,N,03613.0945,E,1,04,13.5,162.4,M,11.6,M,,*55

$GPRMC,095856.00,A,5001.2276,N,03613.0945,E,1.99,252.46,250706,6.5,W,A*29

$GPGSA,A,3,04,08,13,27,,,,,,,,,13.5,13.5,1.0*38

$GPGSV,3,1,09,02,19,270,42,04,12,235,35,07,06,040,00,08,34,231,36*71

$GPGSV,3,2,09,10,22,314,00,13,68,084,33,16,19,041,00,23,00,000,28*77

$GPGSV,3,3,09,27,66,234,36*45

$GPGGA,095857.00,5001.2276,N,03613.0940,E,1,04,13.4,162.4,M,11.6,M,,*50

$GPRMC,095857.00,A,5001.2276,N,03613.0940,E,2.01,269.67,250706,6.5,W,A*24

$GPGSA,A,3,04,08,13,27,,,,,,,,,13.5,13.4,1.0*39

$GPGSV,3,1,09,02,19,270,40,04,12,235,35,07,06,040,00,08,34,231,39*7C

$GPGSV,3,2,09,10,22,314,00,13,68,084,33,16,19,041,00,23,00,000,34*7A

$GPGSV,3,3,09,27,66,234,36*45

$GPGGA,095858.00,5001.2276,N,03613.0933,E,1,04,13.4,162.4,M,11.6,M,,*5B

$GPRMC,095858.00,A,5001.2276,N,03613.0933,E,2.31,265.26,250706,6.5,W,A*25

$GPGSA,A,3,04,08,13,27,,,,,,,,,13.5,13.4,1.0*39

$GPGSV,3,1,09,02,19,270,40,04,12,235,33,07,06,040,00,08,34,231,39*7A

$GPGSV,3,2,09,10,22,314,00,13,68,084,34,16,19,041,00,23,00,000,35*7C

$GPGSV,3,3,09,27,67,234,36*44

$GPGGA,095859.00,5001.2259,N,03613.0914,E,1,04,13.4,164.0,M,11.6,M,,*50

$GPRMC,095859.00,A,5001.2259,N,03613.0914,E,2.47,225.37,250706,6.5,W,A*29

$GPGSA,A,3,04,08,13,27,,,,,,,,,13.5,13.4,1.0*39

$GPGSV,3,1,09,02,19,270,44,04,12,235,30,07,06,040,00,08,34,231,38*7C

$GPGSV,3,2,09,10,22,314,00,13,68,084,32,16,19,041,00,23,00,000,35*7A

$GPGSV,3,3,09,27,67,234,36*44

$GPGGA,095900.00,5001.2253,N,03613.0918,E,1,04,13.4,164.4,M,11.6,M,,*5F

$GPRMC,095900.00,A,5001.2253,N,03613.0918,E,2.51,259.80,250706,6.5,W,A*22

$GPGSA,A,3,04,08,13,27,,,,,,,,,13.5,13.4,1.0*39

$GPGSV,3,1,09,02,19,270,44,04,12,235,30,07,06,040,00,08,34,231,39*7D

$GPGSV,3,2,09,10,22,314,00,13,68,084,32,16,19,041,00,23,00,000,35*7A

$GPGSV,3,3,09,27,67,234,35*47

$GPGGA,095901.00,5001.2247,N,03613.0917,E,1,04,13.4,164.3,M,11.6,M,,*53

$GPRMC,095901.00,A,5001.2247,N,03613.0917,E,2.04,240.84,250706,6.5,W,A*25

$GPGSA,A,3,04,08,13,27,,,,,,,,,13.5,13.4,1.0*39

$GPGSV,3,1,09,02,19,270,44,04,12,235,32,07,06,040,00,08,34,231,39*7F

$GPGSV,3,2,09,10,22,314,00,13,68,084,33,16,19,041,00,23,00,000,37*79

$GPGSV,3,3,09,27,67,234,36*44

$GPGGA,095902.00,5001.2238,N,03613.0912,E,1,04,13.4,163.9,M,11.6,M,,*50

$GPRMC,095902.00,A,5001.2238,N,03613.0912,E,2.15,212.67,250706,6.5,W,A*21

$GPGSA,A,3,04,08,13,27,,,,,,,,,13.4,13.4,1.0*38

$GPGSV,3,1,09,02,19,270,43,04,12,235,33,07,06,039,00,08,34,231,37*79

$GPGSV,3,2,09,10,22,314,00,13,68,084,32,16,19,041,00,23,00,000,37*78

$GPGSV,3,3,09,27,67,234,36*44

$GPGGA,095903.00,5001.2227,N,03613.0908,E,1,04,13.4,163.6,M,11.6,M,,*5B

$GPRMC,095903.00,A,5001.2227,N,03613.0908,E,2.22,219.34,250706,6.5,W,A*2C

$GPGSA,A,3,04,08,13,27,,,,,,,,,13.4,13.4,1.0*38

$GPGSV,3,1,09,02,19,270,43,04,12,235,33,07,06,039,00,08,35,231,37*78

$GPGSV,3,2,09,10,22,314,00,13,68,084,32,16,19,041,00,23,00,000,37*78

$GPGSV,3,3,09,27,67,234,37*45

$GPGGA,095904.00,5001.2195,N,03613.0873,E,1,04,13.4,165.6,M,11.6,M,,*5D

$GPRMC,095904.00,A,5001.2195,N,03613.0873,E,2.42,210.87,250706,6.5,W,A*2B

$GPGSA,A,3,04,08,13,27,,,,,,,,,13.4,13.4,1.0*38

$GPGSV,3,1,09,02,19,270,43,04,12,235,31,07,06,039,00,08,35,231,35*78

$GPGSV,3,2,09,10,22,314,00,13,68,084,32,16,19,041,00,23,00,000,34*7B

$GPGSV,3,3,09,27,67,234,37*45

$GPGGA,095905.00,5001.2186,N,03613.0884,E,1,04,13.4,166.1,M,11.6,M,,*52

$GPRMC,095905.00,A,5001.2186,N,03613.0884,E,2.18,254.80,250706,6.5,W,A*28

$GPGSA,A,3,04,08,13,27,,,,,,,,,13.4,13.4,1.0*38

$GPGSV,3,1,09,02,19,270,43,04,12,235,31,07,06,039,00,08,35,231,37*7A

$GPGSV,3,2,09,10,22,314,00,13,68,084,33,16,19,041,00,23,00,000,34*7A

$GPGSV,3,3,09,27,67,234,37*45

$GPGGA,095906.00,5001.2164,N,03613.0873,E,1,04,13.4,167.0,M,11.6,M,,*55

$GPRMC,095906.00,A,5001.2164,N,03613.0873,E,2.44,230.36,250706,6.5,W,A*29

$GPGSA,A,3,04,08,13,27,,,,,,,,,13.4,13.4,1.0*38

$GPGSV,3,1,09,02,19,270,43,04,12,235,24,07,06,039,00,08,35,231,37*7E

$GPGSV,3,2,09,10,22,314,00,13,68,084,33,16,19,041,00,23,00,000,34*7A

$GPGSV,3,3,09,27,67,234,37*45

$GPGGA,095907.00,5001.2150,N,03613.0871,E,1,03,13.4,166.0,M,11.6,M,,*57

$GPRMC,095907.00,A,5001.2150,N,03613.0871,E,3.43,219.74,250706,6.5,W,A*26

$GPGSA,A,2,08,13,27,,,,,,,,,,13.4,13.4,1.0*3D

$GPGSV,3,1,09,02,19,270,42,04,12,235,25,07,06,039,00,08,35,231,38*71

$GPGSV,3,2,09,10,22,314,38,13,68,084,32,16,19,041,00,23,00,000,34*70

$GPGSV,3,3,09,27,67,234,37*45

$GPGGA,095908.00,5001.2096,N,03613.0907,E,1,03,13.4,162.4,M,11.6,M,,*53

$GPRMC,095908.00,A,5001.2096,N,03613.0907,E,5.88,185.97,250706,6.5,W,A*28

$GPGSA,A,2,08,13,27,,,,,,,,,,13.4,13.4,1.0*3D

$GPGSV,3,1,09,02,19,270,40,04,12,235,25,07,06,039,00,08,35,231,38*73

$GPGSV,3,2,09,10,22,314,38,13,68,084,33,16,19,041,00,23,00,000,37*72

$GPGSV,3,3,09,27,67,234,37*45

$GPGGA,095909.00,5001.2091,N,03613.0899,E,1,03,13.4,163.0,M,11.6,M,,*56

$GPRMC,095909.00,A,5001.2091,N,03613.0899,E,3.09,256.05,250706,6.5,W,A*21

$GPGSA,A,2,08,13,27,,,,,,,,,,13.4,13.4,1.0*3D

$GPGSV,3,1,09,02,19,270,40,04,12,235,16,07,06,039,00,08,35,231,38*73

$GPGSV,3,2,09,10,22,314,39,13,68,084,33,16,19,041,00,23,00,000,38*7C

$GPGSV,3,3,09,27,67,234,37*45

$GPGGA,095910.00,5001.2081,N,03613.0893,E,1,03,13.4,162.4,M,11.6,M,,*50

$GPRMC,095910.00,A,5001.2081,N,03613.0893,E,4.33,182.38,250706,6.5,W,A*28

$GPGSA,A,2,08,13,27,,,,,,,,,,13.4,13.4,1.0*3D

$GPGSV,3,1,09,02,19,270,35,04,12,235,18,07,06,039,00,08,35,231,41*71

$GPGSV,3,2,09,10,22,314,39,13,68,084,33,16,19,041,00,23,00,000,38*7C

$GPGSV,3,3,09,27,67,234,37*45

$GPGGA,095911.00,5001.2068,N,03613.0892,E,1,03,13.4,162.3,M,11.6,M,,*50

$GPRMC,095911.00,A,5001.2068,N,03613.0892,E,5.68,179.80,250706,6.5,W,A*27

$GPGSA,A,2,08,13,27,,,,,,,,,,13.4,13.4,1.0*3D

$GPGSV,3,1,09,02,19,270,34,04,12,235,18,07,06,039,00,08,35,231,40*71

$GPGSV,3,2,09,10,22,314,38,13,68,084,33,16,19,041,00,23,00,000,37*72

$GPGSV,3,3,09,27,67,234,36*44

$GPGGA,095912.00,5001.2161,N,03613.0911,E,1,04,2.7,168.9,M,11.6,M,,*65

$GPRMC,095912.00,A,5001.2161,N,03613.0911,E,3.53,190.98,250706,6.5,W,A*26

$GPGSA,A,3,02,08,13,27,,,,,,,,,2.9,2.7,1.0*30

$GPGSV,3,1,09,02,19,270,34,04,12,235,00,07,06,039,00,08,35,231,40*78

$GPGSV,3,2,09,10,22,314,38,13,68,084,32,16,19,041,00,23,00,000,38*7C

$GPGSV,3,3,09,27,67,234,36*44

$GPGGA,095913.00,5001.2159,N,03613.0895,E,1,03,13.3,169.0,M,11.6,M,,*59

$GPRMC,095913.00,A,5001.2159,N,03613.0895,E,2.29,221.64,250706,6.5,W,A*27

$GPGSA,A,2,08,13,27,,,,,,,,,,13.4,13.3,1.0*3A

$GPGSV,3,1,09,02,19,270,34,04,12,235,00,07,06,039,00,08,35,231,38*77

$GPGSV,3,2,09,10,22,314,38,13,68,084,33,16,19,041,00,23,00,000,38*7D

$GPGSV,3,3,09,27,67,234,36*44

$GPGGA,095914.00,5001.2169,N,03613.0865,E,1,03,13.3,167.5,M,11.6,M,,*59

$GPRMC,095914.00,A,5001.2169,N,03613.0865,E,2.37,266.36,250706,6.5,W,A*27

$GPGSA,A,2,08,13,27,,,,,,,,,,13.4,13.3,1.0*3A

$GPGSV,3,1,09,02,19,270,34,04,12,235,00,07,06,039,00,08,35,231,40*78

$GPGSV,3,2,09,10,22,314,36,13,68,084,33,16,19,041,00,23,00,000,35*7E

$GPGSV,3,3,09,27,67,234,36*44

$GPGGA,095915.00,5001.2164,N,03613.0844,E,1,03,13.3,167.5,M,11.6,M,,*56

$GPRMC,095915.00,A,5001.2164,N,03613.0844,E,2.98,190.36,250706,6.5,W,A*27

$GPGSA,A,2,08,13,27,,,,,,,,,,13.4,13.3,1.0*3A

$GPGSV,3,1,09,02,19,270,34,04,12,235,00,07,06,039,00,08,35,231,40*78

$GPGSV,3,2,09,10,22,314,39,13,68,084,34,16,19,041,00,23,00,000,30*73

$GPGSV,3,3,09,27,67,234,35*47

$GPGGA,095916.00,5001.2170,N,03613.0824,E,1,03,13.3,166.5,M,11.6,M,,*57

$GPRMC,095916.00,A,5001.2170,N,03613.0824,E,2.37,271.15,250706,6.5,W,A*2F

$GPGSA,A,2,08,13,27,,,,,,,,,,13.4,13.3,1.0*3A

$GPGSV,3,1,09,02,19,270,35,04,12,235,00,07,06,039,00,08,35,231,37*79

$GPGSV,3,2,09,10,22,314,39,13,68,084,32,16,19,041,00,23,00,000,30*75

$GPGSV,3,3,09,27,67,234,35*47

$GPGGA,095917.00,5001.2189,N,03613.0765,E,1,03,13.3,163.2,M,11.6,M,,*58

$GPRMC,095917.00,A,5001.2189,N,03613.0765,E,3.06,286.26,250706,6.5,W,A*29

$GPGSA,A,2,08,13,27,,,,,,,,,,13.4,13.3,1.0*3A

$GPGSV,3,1,09,02,19,270,36,04,12,235,00,07,06,039,00,08,35,231,40*7A

$GPGSV,3,2,09,10,22,314,37,13,68,084,32,16,19,041,00,23,00,000,36*7D

$GPGSV,3,3,09,27,67,234,36*44

$GPGGA,095918.00,5001.2190,N,03613.0756,E,1,03,13.3,162.6,M,11.6,M,,*5A

$GPRMC,095918.00,A,5001.2190,N,03613.0756,E,3.75,301.68,250706,6.5,W,A*2E

$GPGSA,A,2,08,13,27,,,,,,,,,,13.3,13.3,1.0*3D

$GPGSV,3,1,09,02,19,270,36,04,12,235,00,07,06,039,00,08,35,231,40*7A

$GPGSV,3,2,09,10,22,314,38,13,68,084,34,16,19,041,00,23,00,000,34*76

$GPGSV,3,3,09,27,67,234,35*47

$GPGGA,095919.00,5001.2188,N,03613.0752,E,1,03,13.3,162.7,M,11.6,M,,*57

$GPRMC,095919.00,A,5001.2188,N,03613.0752,E,1.80,258.30,250706,6.5,W,A*2A

$GPGSA,A,2,08,13,27,,,,,,,,,,13.3,13.3,1.0*3D

$GPGSV,3,1,09,02,19,270,35,04,12,235,28,07,06,039,00,08,35,231,38*7C

$GPGSV,3,2,09,10,22,314,38,13,68,084,33,16,19,041,00,23,00,000,34*71

$GPGSV,3,3,09,27,67,235,35*46

$GPGGA,095920.00,5001.2187,N,03613.0748,E,1,03,13.3,162.8,M,11.6,M,,*56

$GPRMC,095920.00,A,5001.2187,N,03613.0748,E,2.18,272.44,250706,6.5,W,A*2D

$GPGSA,A,2,08,13,27,,,,,,,,,,13.3,13.3,1.0*3D

$GPGSV,3,1,09,02,19,270,36,04,12,235,29,07,06,039,00,08,35,231,39*7F

$GPGSV,3,2,09,10,22,314,37,13,68,084,33,16,19,041,00,23,00,000,33*79

$GPGSV,3,3,09,27,67,235,36*45

$GPGGA,095921.00,5001.2185,N,03613.0744,E,1,03,13.3,162.9,M,11.6,M,,*58

$GPRMC,095921.00,A,5001.2185,N,03613.0744,E,1.92,245.29,250706,6.5,W,A*2C

$GPGSA,A,2,08,13,27,,,,,,,,,,13.3,13.3,1.0*3D

$GPGSV,3,1,09,02,19,270,36,04,12,235,29,07,06,039,00,08,35,231,39*7F

$GPGSV,3,2,09,10,22,314,34,13,68,084,34,16,19,041,00,23,00,000,35*7B

$GPGSV,3,3,09,27,67,235,36*45

$GPGGA,095922.00,5001.2177,N,03613.0742,E,1,04,13.3,163.0,M,11.6,M,,*5F

$GPRMC,095922.00,A,5001.2177,N,03613.0742,E,2.10,231.99,250706,6.5,W,A*25

$GPGSA,A,3,04,08,13,27,,,,,,,,,13.3,13.3,1.0*38

$GPGSV,3,1,09,02,19,270,33,04,12,235,29,07,06,039,00,08,35,231,41*75

$GPGSV,3,2,09,10,22,314,34,13,68,084,35,16,19,041,00,23,00,000,35*7A

$GPGSV,3,3,09,27,67,235,36*45

$GPGGA,095923.00,5001.2189,N,03613.0748,E,1,05,2.8,159.9,M,11.6,M,,*6F

$GPRMC,095923.00,A,5001.2189,N,03613.0748,E,1.90,227.76,250706,6.5,W,A*22

$GPGSA,A,3,02,04,08,13,27,,,,,,,,4.1,2.8,2.9*3F

$GPGSV,3,1,09,02,19,270,37,04,12,235,33,07,06,039,00,08,35,232,41*79

$GPGSV,3,2,09,10,22,314,34,13,68,084,35,16,19,041,00,23,00,000,39*76

$GPGSV,3,3,09,27,67,235,36*45

$GPGGA,095924.00,5001.2194,N,03613.0749,E,1,04,13.2,158.3,M,11.6,M,,*55

$GPRMC,095924.00,A,5001.2194,N,03613.0749,E,1.42,229.43,250706,6.5,W,A*2F

$GPGSA,A,3,04,08,13,27,,,,,,,,,13.3,13.2,1.0*39

$GPGSV,3,1,09,02,19,270,37,04,12,235,30,07,06,039,00,08,35,232,39*75

$GPGSV,3,2,09,10,22,314,31,13,68,084,36,16,19,041,00,23,00,000,39*70

$GPGSV,3,3,09,27,67,235,36*45

$GPGGA,095925.00,5001.2194,N,03613.0750,E,1,04,13.2,157.4,M,11.6,M,,*54

$GPRMC,095925.00,A,5001.2194,N,03613.0750,E,1.31,220.99,250706,6.5,W,A*2C

$GPGSA,A,3,04,08,13,27,,,,,,,,,13.3,13.2,1.0*39

$GPGSV,3,1,09,02,19,270,40,04,12,235,30,07,06,039,00,08,35,232,36*7A

$GPGSV,3,2,09,10,22,314,31,13,68,084,37,16,19,041,00,23,00,000,39*71

$GPGSV,3,3,09,27,67,235,36*45

$GPGGA,095926.00,5001.2195,N,03613.0748,E,1,04,13.2,157.0,M,11.6,M,,*5B

$GPRMC,095926.00,A,5001.2195,N,03613.0748,E,1.24,223.03,250706,6.5,W,A*23

$GPGSA,A,3,04,08,13,27,,,,,,,,,13.3,13.2,1.0*39

$GPGSV,3,1,09,02,19,270,37,04,12,235,32,07,06,039,00,08,35,232,36*78

$GPGSV,3,2,09,10,22,314,25,13,68,084,37,16,19,041,00,23,00,000,38*75

$GPGSV,3,3,09,27,67,235,36*45

$GPGGA,095927.00,5001.2203,N,03613.0731,E,1,04,13.2,156.1,M,11.6,M,,*58

$GPRMC,095927.00,A,5001.2203,N,03613.0731,E,1.99,304.12,250706,6.5,W,A*22

$GPGSA,A,3,04,08,13,27,,,,,,,,,13.2,13.2,1.0*38

$GPGSV,3,1,09,02,19,270,37,04,12,235,32,07,06,039,00,08,35,232,30*7E

$GPGSV,3,2,09,10,22,314,22,13,68,084,37,16,19,041,00,23,00,000,38*72

$GPGSV,3,3,09,27,67,235,36*45

$GPGGA,095928.00,5001.2238,N,03613.0645,E,1,04,13.2,152.1,M,11.6,M,,*59

$GPRMC,095928.00,A,5001.2238,N,03613.0645,E,2.39,309.95,250706,6.5,W,A*2C

$GPGSA,A,3,04,08,13,27,,,,,,,,,13.2,13.2,1.0*38

$GPGSV,3,1,09,02,19,270,35,04,12,235,28,07,06,039,00,08,35,232,32*75

$GPGSV,3,2,09,10,22,314,22,13,68,084,36,16,19,041,00,23,00,000,36*7D

$GPGSV,3,3,09,27,67,235,36*45

$GPGGA,095929.00,5001.2248,N,03613.0641,E,1,04,2.8,151.5,M,11.6,M,,*66

$GPRMC,095929.00,A,5001.2248,N,03613.0641,E,0.83,246.01,250706,6.5,W,A*2A

$GPGSA,A,3,02,08,13,27,,,,,,,,,2.9,2.8,1.0*3F

$GPGSV,3,1,09,02,19,270,35,04,12,235,25,07,06,039,00,08,35,232,32*78

$GPGSV,3,2,09,10,22,314,22,13,68,084,36,16,19,041,00,23,00,000,36*7D

$GPGSV,3,3,09,27,67,235,36*45

$GPGGA,095930.00,5001.2276,N,03613.0632,E,1,04,2.8,152.2,M,11.6,M,,*63

$GPRMC,095930.00,A,5001.2276,N,03613.0632,E,1.61,183.78,250706,6.5,W,A*22

$GPGSA,A,3,02,08,13,27,,,,,,,,,2.9,2.8,1.0*3F

$GPGSV,3,1,09,02,19,270,34,04,12,235,25,07,06,039,00,08,35,232,31*7A

$GPGSV,3,2,09,10,22,314,22,13,68,084,38,16,19,041,00,23,00,000,36*73

$GPGSV,3,3,09,27,67,235,36*45

$GPGGA,095931.00,5001.2290,N,03613.0628,E,1,03,13.2,152.6,M,11.6,M,,*58

$GPRMC,095931.00,A,5001.2290,N,03613.0628,E,0.93,186.65,250706,6.5,W,A*25

$GPGSA,A,2,08,13,27,,,,,,,,,,13.3,13.2,1.0*3C

$GPGSV,3,1,09,02,19,270,29,04,12,235,26,07,06,039,00,08,35,232,34*70

$GPGSV,3,2,09,10,22,314,00,13,68,084,36,16,19,041,00,23,00,000,37*7C

$GPGSV,3,3,09,27,67,235,36*45

$GPGGA,095932.00,5001.2320,N,03613.0601,E,1,03,13.2,152.8,M,11.6,M,,*54

$GPRMC,095932.00,A,5001.2320,N,03613.0601,E,2.43,163.19,250706,6.5,W,A*28

$GPGSA,A,2,08,13,27,,,,,,,,,,13.2,13.2,1.0*3D

$GPGSV,3,1,09,02,19,270,29,04,12,235,29,07,06,039,00,08,35,232,34*7F

$GPGSV,3,2,09,10,22,314,00,13,68,084,36,16,19,041,00,23,00,000,37*7C

$GPGSV,3,3,09,27,67,235,36*45

$GPGGA,095933.00,5001.2351,N,03613.0574,E,1,04,2.8,152.9,M,11.6,M,,*6E

$GPRMC,095933.00,A,5001.2351,N,03613.0574,E,2.73,162.71,250706,6.5,W,A*22

$GPGSA,A,3,02,08,13,27,,,,,,,,,2.9,2.8,1.0*3F

$GPGSV,3,1,09,02,19,270,29,04,12,235,29,07,06,039,00,08,35,232,32*79

$GPGSV,3,2,09,10,22,314,00,13,68,084,36,16,19,041,38,23,00,000,37*77

$GPGSV,3,3,09,27,67,235,36*45

$GPGGA,095934.00,5001.2368,N,03613.0555,E,1,05,2.8,152.3,M,11.6,M,,*6B

$GPRMC,095934.00,A,5001.2368,N,03613.0555,E,1.73,154.67,250706,6.5,W,A*2D

$GPGSA,A,3,02,04,08,13,27,,,,,,,,4.1,2.8,2.9*3F

$GPGSV,3,1,09,02,19,270,23,04,12,235,27,07,06,039,00,08,35,232,33*7C

$GPGSV,3,2,09,10,22,314,00,13,68,084,36,16,19,041,36,23,00,000,38*76

$GPGSV,3,3,09,27,67,235,36*45

$GPGGA,095935.00,5001.2393,N,03613.0548,E,1,04,13.1,155.0,M,11.6,M,,*5E

$GPRMC,095935.00,A,5001.2393,N,03613.0548,E,4.19,153.83,250706,6.5,W,A*20

$GPGSA,A,3,04,08,13,27,,,,,,,,,13.2,13.1,1.0*3B

$GPGSV,3,1,09,02,19,270,23,04,12,235,30,07,06,039,00,08,35,232,33*7A

$GPGSV,3,2,09,10,22,314,00,13,68,084,36,16,19,041,36,23,00,000,39*77

$GPGSV,3,3,09,27,67,235,37*44

$GPGGA,095936.00,5001.2402,N,03613.0546,E,1,05,5.6,154.5,M,11.6,M,,*69

$GPRMC,095936.00,A,5001.2402,N,03613.0546,E,2.57,163.08,250706,6.5,W,A*2E

$GPGSA,A,3,04,08,13,16,27,,,,,,,,6.0,5.6,2.3*3A

$GPGSV,3,1,09,02,19,270,26,04,12,235,30,07,06,039,00,08,35,232,34*78

$GPGSV,3,2,09,10,22,314,00,13,68,084,34,16,19,041,36,23,00,000,39*75

$GPGSV,3,3,09,27,67,235,37*44

$GPGGA,095937.00,5001.2416,N,03613.0540,E,1,05,5.5,154.7,M,11.6,M,,*6A

$GPRMC,095937.00,A,5001.2416,N,03613.0540,E,2.47,164.21,250706,6.5,W,A*21

$GPGSA,A,3,04,08,13,16,27,,,,,,,,6.0,5.5,2.3*39

$GPGSV,3,1,09,02,19,270,29,04,12,235,25,07,06,039,00,08,35,232,34*73

$GPGSV,3,2,09,10,22,314,00,13,68,084,34,16,19,041,36,23,00,000,37*7B

$GPGSV,3,3,09,27,67,235,36*45

$GPGGA,095938.00,5001.2423,N,03613.0538,E,1,04,2.8,154.8,M,11.6,M,,*68

$GPRMC,095938.00,A,5001.2423,N,03613.0538,E,1.62,173.49,250706,6.5,W,A*2B

$GPGSA,A,3,02,08,13,27,,,,,,,,,2.9,2.8,1.0*3F

$GPGSV,3,1,09,02,19,270,29,04,12,235,25,07,06,039,00,08,35,232,34*73

$GPGSV,3,2,09,10,22,314,00,13,68,084,35,16,19,041,36,23,00,000,37*7A

$GPGSV,3,3,09,27,67,235,35*46

$GPGGA,095939.00,5001.2425,N,03613.0536,E,1,04,2.8,154.7,M,11.6,M,,*6E

$GPRMC,095939.00,A,5001.2425,N,03613.0536,E,0.76,245.90,250706,6.5,W,A*24

$GPGSA,A,3,02,08,13,27,,,,,,,,,2.9,2.8,1.0*3F

$GPGSV,3,1,09,02,19,270,28,04,12,235,25,07,06,039,00,08,35,232,33*75

$GPGSV,3,2,09,10,22,314,00,13,68,084,35,16,19,041,36,23,00,000,37*7A

$GPGSV,3,3,09,27,67,235,35*46

$GPGGA,095940.00,5001.2429,N,03613.0535,E,1,05,3.3,154.5,M,11.6,M,,*66

$GPRMC,095940.00,A,5001.2429,N,03613.0535,E,1.45,183.36,250706,6.5,W,A*21

$GPGSA,A,3,02,08,13,16,27,,,,,,,,4.5,3.3,3.1*3B

$GPGSV,3,1,09,02,19,270,31,04,12,235,22,07,06,039,00,08,35,232,37*7E

$GPGSV,3,2,09,10,22,314,00,13,68,084,35,16,19,041,37,23,00,000,35*79

$GPGSV,3,3,09,27,67,235,36*45

$GPGGA,095941.00,5001.2431,N,03613.0535,E,1,05,3.3,154.4,M,11.6,M,,*6F

$GPRMC,095941.00,A,5001.2431,N,03613.0535,E,1.09,246.88,250706,6.5,W,A*2E

$GPGSA,A,3,02,08,13,16,27,,,,,,,,4.5,3.3,3.1*3B

$GPGSV,3,1,09,02,19,270,31,04,12,235,23,07,06,039,00,08,35,232,37*7F

$GPGSV,3,2,09,10,22,314,00,13,68,084,35,16,19,041,36,23,00,000,37*7A

$GPGSV,3,3,09,27,67,235,35*46

$GPGGA,095942.00,5001.2433,N,03613.0539,E,1,05,3.3,153.7,M,11.6,M,,*66

$GPRMC,095942.00,A,5001.2433,N,03613.0539,E,1.25,191.69,250706,6.5,W,A*2B

$GPGSA,A,3,02,08,13,16,27,,,,,,,,4.5,3.3,3.1*3B

$GPGSV,3,1,09,02,19,270,28,04,12,235,23,07,06,039,00,08,35,232,35*75

$GPGSV,3,2,09,10,22,314,00,13,68,084,36,16,19,041,36,23,00,000,37*79

$GPGSV,3,3,09,27,67,235,35*46

$GPGGA,095943.00,5001.2432,N,03613.0544,E,1,05,3.3,152.2,M,11.6,M,,*68

$GPRMC,095943.00,A,5001.2432,N,03613.0544,E,0.64,210.34,250706,6.5,W,A*27

$GPGSA,A,3,02,08,13,16,27,,,,,,,,4.5,3.3,3.1*3B

$GPGSV,3,1,09,02,19,270,27,04,12,235,24,07,06,039,00,08,35,232,33*7B

$GPGSV,3,2,09,10,22,314,00,13,68,084,36,16,19,041,35,23,00,000,40*7A

$GPGSV,3,3,09,27,67,235,37*44

$GPGGA,095944.00,5001.2434,N,03613.0549,E,1,05,3.3,151.3,M,11.6,M,,*66

$GPRMC,095944.00,A,5001.2434,N,03613.0549,E,1.28,182.54,250706,6.5,W,A*2C

$GPGSA,A,3,02,08,13,16,27,,,,,,,,4.5,3.3,3.1*3B

$GPGSV,3,1,09,02,19,270,27,04,12,235,23,07,06,039,00,08,35,232,33*7C

$GPGSV,3,2,09,10,22,314,00,13,68,084,36,16,19,041,35,23,00,000,40*7A

$GPGSV,3,3,09,27,67,235,37*44

$GPGGA,095945.00,5001.2388,N,03613.0562,E,1,05,3.3,141.6,M,11.6,M,,*6A

$GPRMC,095945.00,A,5001.2388,N,03613.0562,E,5.92,152.41,250706,6.5,W,A*28

$GPGSA,A,3,02,08,13,16,27,,,,,,,,4.5,3.3,3.1*3B

$GPGSV,3,1,09,02,19,270,28,04,12,235,23,07,06,039,00,08,35,232,30*70

$GPGSV,3,2,09,10,22,314,00,13,68,084,35,16,19,041,35,23,00,000,40*79

$GPGSV,3,3,09,27,67,235,37*44

$GPGGA,095946.00,5001.2390,N,03613.0567,E,1,05,3.3,141.1,M,11.6,M,,*62

$GPRMC,095946.00,A,5001.2390,N,03613.0567,E,1.50,180.42,250706,6.5,W,A*21

$GPGSA,A,3,02,08,13,16,27,,,,,,,,4.5,3.3,3.1*3B

$GPGSV,3,1,09,02,19,270,25,04,12,235,25,07,06,039,00,08,35,232,30*7B

$GPGSV,3,2,09,10,22,314,00,13,68,085,35,16,19,041,35,23,00,000,39*76

$GPGSV,3,3,09,27,67,235,37*44

$GPGGA,095947.00,5001.2392,N,03613.0570,E,1,06,2.3,140.8,M,11.6,M,,*6D

$GPRMC,095947.00,A,5001.2392,N,03613.0570,E,0.97,221.03,250706,6.5,W,A*23

$GPGSA,A,3,02,04,08,13,16,27,,,,,,,2.9,2.3,1.8*3F

$GPGSV,3,1,09,02,19,270,25,04,12,235,29,07,06,039,00,08,35,232,33*74

$GPGSV,3,2,09,10,22,314,00,13,68,085,36,16,19,040,34,23,00,000,39*75

$GPGSV,3,3,09,27,67,235,37*44

$GPGGA,095948.00,5001.2395,N,03613.0572,E,1,05,5.5,140.7,M,11.6,M,,*6A

$GPRMC,095948.00,A,5001.2395,N,03613.0572,E,1.48,196.23,250706,6.5,W,A*27

$GPGSA,A,3,04,08,13,16,27,,,,,,,,5.9,5.5,2.3*33

$GPGSV,3,1,09,02,19,270,28,04,12,235,29,07,06,039,30,08,35,232,32*7B

$GPGSV,3,2,09,10,22,314,00,13,68,085,36,16,19,040,34,23,00,000,39*75

$GPGSV,3,3,09,27,67,235,37*44

$GPGGA,095949.00,5001.2398,N,03613.0571,E,1,06,2.3,140.4,M,11.6,M,,*64

$GPRMC,095949.00,A,5001.2398,N,03613.0571,E,1.67,270.51,250706,6.5,W,A*2B

$GPGSA,A,3,02,04,08,13,16,27,,,,,,,2.9,2.3,1.8*3F

$GPGSV,3,1,09,02,19,270,28,04,12,235,31,07,06,039,31,08,35,232,32*73

$GPGSV,3,2,09,10,22,314,00,13,68,085,36,16,19,040,34,23,00,000,39*75

$GPGSV,3,3,09,27,67,235,37*44

$GPGGA,095950.00,5001.2401,N,03613.0573,E,1,07,2.2,140.1,M,11.6,M,,*6C

$GPRMC,095950.00,A,5001.2401,N,03613.0573,E,1.46,202.26,250706,6.5,W,A*20

$GPGSA,A,3,02,04,07,08,13,16,27,,,,,,2.7,2.2,1.6*39

$GPGSV,3,1,09,02,19,270,27,04,12,235,31,07,06,039,33,08,35,232,35*79

$GPGSV,3,2,09,10,22,314,00,13,68,085,36,16,19,040,33,23,00,000,39*72

$GPGSV,3,3,09,27,67,235,37*44

$GPGGA,095951.00,5001.2405,N,03613.0574,E,1,06,5.5,139.8,M,11.6,M,,*68

$GPRMC,095951.00,A,5001.2405,N,03613.0574,E,1.57,204.63,250706,6.5,W,A*25

$GPGSA,A,3,04,07,08,13,16,27,,,,,,,5.9,5.5,2.1*36

$GPGSV,3,1,09,02,19,270,27,04,12,235,28,07,06,039,33,08,35,232,37*73

$GPGSV,3,2,09,10,22,314,00,13,68,085,35,16,19,040,33,23,00,000,37*7F

$GPGSV,3,3,09,27,67,235,37*44

$GPGGA,095952.00,5001.2407,N,03613.0575,E,1,06,5.5,139.3,M,11.6,M,,*63

$GPRMC,095952.00,A,5001.2407,N,03613.0575,E,1.98,195.49,250706,6.5,W,A*25

$GPGSA,A,3,04,07,08,13,16,27,,,,,,,5.9,5.5,2.1*36

$GPGSV,3,1,09,02,19,270,27,04,12,235,32,07,06,039,30,08,35,232,37*7B

$GPGSV,3,2,09,10,22,314,00,13,68,085,35,16,19,040,29,23,00,000,41*75

$GPGSV,3,3,09,27,67,235,38*4B

$GPGGA,095953.00,5001.2407,N,03613.0574,E,1,05,5.5,138.9,M,11.6,M,,*6B

$GPRMC,095953.00,A,5001.2407,N,03613.0574,E,1.75,224.18,250706,6.5,W,A*2B

$GPGSA,A,3,04,08,13,16,27,,,,,,,,5.9,5.5,2.3*33

$GPGSV,3,1,09,02,19,270,25,04,12,235,32,07,06,039,26,08,35,232,40*7E

$GPGSV,3,2,09,10,22,314,00,13,68,085,35,16,19,040,29,23,00,000,41*75

$GPGSV,3,3,09,27,67,235,38*4B

$GPGGA,095954.00,5001.2398,N,03613.0552,E,1,05,5.5,141.0,M,11.6,M,,*6E

$GPRMC,095954.00,A,5001.2398,N,03613.0552,E,1.92,255.98,250706,6.5,W,A*2E

$GPGSA,A,3,04,08,13,16,27,,,,,,,,5.9,5.5,2.3*33

$GPGSV,3,1,09,02,19,270,27,04,12,235,30,07,06,039,26,08,35,232,40*7E

$GPGSV,3,2,09,10,22,314,00,13,68,085,35,16,19,040,30,23,00,000,37*7C

$GPGSV,3,3,09,27,67,235,36*45

$GPGGA,095955.00,5001.2411,N,03613.0519,E,1,04,4.1,139.8,M,11.6,M,,*65

$GPRMC,095955.00,A,5001.2411,N,03613.0519,E,3.00,287.39,250706,6.5,W,A*2B

$GPGSA,A,3,08,13,16,27,,,,,,,,,4.3,4.1,1.0*39

$GPGSV,3,1,09,02,19,270,27,04,12,235,33,07,06,039,24,08,35,232,40*7F

$GPGSV,3,2,09,10,22,314,00,13,68,085,35,16,19,040,27,23,00,000,37*7A

$GPGSV,3,3,09,27,67,235,35*46

$GPGGA,095956.00,5001.2414,N,03613.0510,E,1,06,2.3,140.0,M,11.6,M,,*6A

$GPRMC,095956.00,A,5001.2414,N,03613.0510,E,2.87,289.77,250706,6.5,W,A*2E

$GPGSA,A,3,02,04,08,13,16,27,,,,,,,2.9,2.3,1.8*3F

$GPGSV,3,1,09,02,19,270,29,04,12,235,33,07,06,039,24,08,35,232,39*7F

$GPGSV,3,2,09,10,22,314,00,13,68,085,33,16,19,040,27,23,00,000,37*7C

$GPGSV,3,3,09,27,67,235,35*46

$GPGGA,095957.00,5001.2417,N,03613.0502,E,1,05,3.4,139.8,M,11.6,M,,*68

$GPRMC,095957.00,A,5001.2417,N,03613.0502,E,2.44,297.67,250706,6.5,W,A*2E

$GPGSA,A,3,02,08,13,16,27,,,,,,,,4.6,3.4,3.1*3F

$GPGSV,3,1,09,02,19,270,30,04,12,235,27,07,06,039,24,08,35,232,40*7C

$GPGSV,3,2,09,10,22,314,00,13,68,085,33,16,19,040,25,23,00,000,33*7A

$GPGSV,3,3,09,27,67,235,36*45

$GPGGA,095958.00,5001.2418,N,03613.0498,E,1,05,3.4,140.0,M,11.6,M,,*6C

$GPRMC,095958.00,A,5001.2418,N,03613.0498,E,1.17,255.84,250706,6.5,W,A*2A

$GPGSA,A,3,02,08,13,16,27,,,,,,,,4.6,3.4,3.1*3F

$GPGSV,3,1,09,02,19,270,30,04,12,235,23,07,06,039,22,08,35,232,40*7E

$GPGSV,3,2,09,10,22,314,00,13,68,085,32,16,19,040,25,23,00,000,35*7D

$GPGSV,3,3,09,27,67,235,35*46

$GPGGA,095959.00,5001.2417,N,03613.0493,E,1,04,2.8,140.3,M,11.6,M,,*66

$GPRMC,095959.00,A,5001.2417,N,03613.0493,E,1.64,265.78,250706,6.5,W,A*2B

$GPGSA,A,3,02,08,13,27,,,,,,,,,3.0,2.8,1.0*37

$GPGSV,3,1,09,02,19,270,30,04,12,235,23,07,06,039,22,08,35,232,39*70

$GPGSV,3,2,09,10,22,314,00,13,68,085,31,16,19,040,25,23,00,000,35*7E

$GPGSV,3,3,09,27,67,235,35*46

$GPGGA,100000.00,5001.2415,N,03613.0488,E,1,05,3.4,140.5,M,11.6,M,,*6C

$GPRMC,100000.00,A,5001.2415,N,03613.0488,E,1.31,225.63,250706,6.5,W,A*25

$GPGSA,A,3,02,08,13,16,27,,,,,,,,4.6,3.4,3.1*3F

$GPGSV,3,1,09,02,19,270,25,04,12,235,25,07,06,039,22,08,35,232,38*73

$GPGSV,3,2,09,10,22,314,00,13,68,085,31,16,19,040,26,23,00,000,34*7C

$GPGSV,3,3,09,27,67,235,36*45

$GPGGA,100001.00,5001.2412,N,03613.0486,E,1,04,4.1,140.4,M,11.6,M,,*66

$GPRMC,100001.00,A,5001.2412,N,03613.0486,E,0.95,183.78,250706,6.5,W,A*27

$GPGSA,A,3,08,13,16,27,,,,,,,,,4.2,4.1,1.0*38

$GPGSV,3,1,09,02,19,270,25,04,12,235,27,07,06,039,33,08,35,232,38*71

$GPGSV,3,2,09,10,22,314,00,13,68,085,34,16,19,040,29,23,00,000,39*7B

$GPGSV,3,3,09,27,67,235,34*47

$GPGGA,100002.00,5001.2411,N,03613.0486,E,1,05,6.1,140.4,M,11.6,M,,*65

$GPRMC,100002.00,A,5001.2411,N,03613.0486,E,0.17,157.84,250706,6.5,W,A*27

$GPGSA,A,3,07,08,13,16,27,,,,,,,,6.8,6.1,3.0*37

$GPGSV,3,1,09,02,19,270,22,04,12,235,27,07,06,039,33,08,35,232,38*76

$GPGSV,3,2,09,10,22,314,00,13,68,085,35,16,19,040,29,23,00,000,39*7A

$GPGSV,3,3,09,27,67,235,34*47

$GPGGA,100003.00,5001.2408,N,03613.0486,E,1,06,5.4,140.1,M,11.6,M,,*6C

$GPRMC,100003.00,A,5001.2408,N,03613.0486,E,0.93,133.71,250706,6.5,W,A*2A

$GPGSA,A,3,04,07,08,13,16,27,,,,,,,5.8,5.4,2.1*36

$GPGSV,3,1,09,02,19,270,14,04,12,235,28,07,06,039,37,08,35,232,34*74

$GPGSV,3,2,09,10,22,314,00,13,68,085,35,16,19,040,34,23,00,000,40*78

$GPGSV,3,3,09,27,67,235,32*41

$GPGGA,100004.00,5001.2400,N,03613.0485,E,1,05,6.1,139.6,M,11.6,M,,*6C

$GPRMC,100004.00,A,5001.2400,N,03613.0485,E,1.95,121.17,250706,6.5,W,A*22

$GPGSA,A,3,07,08,13,16,27,,,,,,,,6.8,6.1,3.0*37

$GPGSV,3,1,09,02,19,269,14,04,12,235,20,07,06,039,40,08,35,232,34*74

$GPGSV,3,2,09,10,22,314,00,13,68,085,37,16,19,040,37,23,00,000,42*7B

$GPGSV,3,3,09,27,67,235,29*4B

$GPGGA,100005.00,5001.2397,N,03613.0485,E,1,05,6.1,139.4,M,11.6,M,,*66

$GPRMC,100005.00,A,5001.2397,N,03613.0485,E,1.13,85.85,250706,6.5,W,A*10

$GPGSA,A,3,07,08,13,16,27,,,,,,,,6.8,6.1,3.0*37

$GPGSV,3,1,09,02,19,269,20,04,12,235,20,07,06,039,40,08,35,232,27*71

$GPGSV,3,2,09,10,22,314,25,13,68,085,38,16,19,040,37,23,00,000,42*73

$GPGSV,3,3,09,27,67,235,29*4B

$GPGGA,100006.00,5001.2396,N,03613.0486,E,1,05,6.1,138.9,M,11.6,M,,*6B

$GPRMC,100006.00,A,5001.2396,N,03613.0486,E,1.36,30.05,250706,6.5,W,A*10

$GPGSA,A,3,07,08,13,16,27,,,,,,,,6.8,6.1,3.0*37

$GPGSV,3,1,09,02,19,269,19,04,12,235,20,07,06,039,40,08,35,232,27*7B

$GPGSV,3,2,09,10,22,314,25,13,68,085,38,16,19,040,36,23,00,000,41*71

$GPGSV,3,3,09,27,67,235,29*4B

$GPGGA,100007.00,5001.2397,N,03613.0489,E,1,05,6.1,138.4,M,11.6,M,,*69

$GPRMC,100007.00,A,5001.2397,N,03613.0489,E,1.73,80.59,250706,6.5,W,A*1C

$GPGSA,A,3,07,08,13,16,27,,,,,,,,6.8,6.1,3.0*37

$GPGSV,3,1,09,02,19,269,19,04,12,235,25,07,06,039,38,08,35,232,26*70

$GPGSV,3,2,09,10,22,314,28,13,68,085,37,16,19,040,37,23,00,000,41*72

$GPGSV,3,3,09,27,67,235,29*4B

$GPGGA,100008.00,5001.2399,N,03613.0493,E,1,04,4.1,138.1,M,11.6,M,,*65

$GPRMC,100008.00,A,5001.2399,N,03613.0493,E,1.29,38.67,250706,6.5,W,A*17

$GPGSA,A,3,08,13,16,27,,,,,,,,,4.2,4.1,1.0*38

$GPGSV,3,1,09,02,19,269,18,04,12,235,25,07,06,039,38,08,35,232,26*71

$GPGSV,3,2,09,10,22,314,31,13,68,085,36,16,19,040,37,23,00,000,41*7B

$GPGSV,3,3,09,27,67,235,31*42

$GPGGA,100009.00,5001.2402,N,03613.0497,E,1,04,4.1,137.8,M,11.6,M,,*63

$GPRMC,100009.00,A,5001.2402,N,03613.0497,E,1.49,43.98,250706,6.5,W,A*1D

$GPGSA,A,3,08,13,16,27,,,,,,,,,4.2,4.1,1.0*38

$GPGSV,3,1,09,02,19,269,27,04,12,235,25,07,06,039,38,08,35,232,26*7D

$GPGSV,3,2,09,10,22,314,31,13,68,085,36,16,19,040,41,23,00,000,38*74

$GPGSV,3,3,09,27,67,235,30*43

$GPGGA,100010.00,5001.2408,N,03613.0502,E,1,04,4.1,137.6,M,11.6,M,,*62

$GPRMC,100010.00,A,5001.2408,N,03613.0502,E,1.85,39.15,250706,6.5,W,A*1A

$GPGSA,A,3,07,13,16,27,,,,,,,,,4.2,4.1,1.0*37

$GPGSV,3,1,09,02,19,269,27,04,12,235,25,07,06,039,38,08,35,232,27*7C

$GPGSV,3,2,09,10,22,314,31,13,68,085,37,16,19,040,41,23,00,000,38*75

$GPGSV,3,3,09,27,67,235,30*43

$GPGGA,100011.00,5001.2417,N,03613.0504,E,1,04,4.1,137.6,M,11.6,M,,*6B

$GPRMC,100011.00,A,5001.2417,N,03613.0504,E,2.39,15.83,250706,6.5,W,A*16

$GPGSA,A,3,07,13,16,27,,,,,,,,,4.2,4.1,1.0*37

$GPGSV,3,1,09,02,19,269,25,04,12,235,26,07,06,039,38,08,35,232,31*7A

$GPGSV,3,2,09,10,22,314,31,13,68,085,37,16,19,040,41,23,00,000,41*7B

$GPGSV,3,3,09,27,67,235,33*40

$GPGGA,100012.00,5001.2424,N,03613.0509,E,1,06,1.7,137.1,M,11.6,M,,*63

$GPRMC,100012.00,A,5001.2424,N,03613.0509,E,2.19,8.17,250706,6.5,W,A*2B

$GPGSA,A,3,07,08,10,13,16,27,,,,,,,2.7,1.7,2.1*3C

$GPGSV,3,1,09,02,19,269,25,04,12,235,27,07,06,039,37,08,35,232,31*74

$GPGSV,3,2,09,10,22,314,31,13,68,085,37,16,19,040,41,23,00,000,35*78

$GPGSV,3,3,09,27,67,235,33*40

$GPGGA,100013.00,5001.2431,N,03613.0512,E,1,06,1.7,136.7,M,11.6,M,,*6B

$GPRMC,100013.00,A,5001.2431,N,03613.0512,E,2.17,358.95,250706,6.5,W,A*26

$GPGSA,A,3,07,08,10,13,16,27,,,,,,,2.7,1.7,2.1*3C

$GPGSV,3,1,09,02,19,269,26,04,12,235,27,07,06,039,34,08,35,232,33*76

$GPGSV,3,2,09,10,22,314,32,13,68,085,35,16,19,040,39,23,00,000,35*76

$GPGSV,3,3,09,27,67,235,33*40

$GPGGA,100014.00,5001.2437,N,03613.0515,E,1,07,1.4,136.5,M,11.6,M,,*6D

$GPRMC,100014.00,A,5001.2437,N,03613.0515,E,2.00,2.88,250706,6.5,W,A*26

$GPGSA,A,3,04,07,08,10,13,16,27,,,,,,2.0,1.4,1.4*3A

$GPGSV,3,1,09,02,19,269,27,04,12,235,28,07,06,039,34,08,35,232,31*7A

$GPGSV,3,2,09,10,22,314,31,13,68,085,35,16,19,040,39,23,00,000,32*72

$GPGSV,3,3,09,27,67,235,35*46

$GPGGA,100015.00,5001.2444,N,03613.0521,E,1,06,1.7,136.7,M,11.6,M,,*6F

$GPRMC,100015.00,A,5001.2444,N,03613.0521,E,2.68,356.19,250706,6.5,W,A*20

$GPGSA,A,3,07,08,10,13,16,27,,,,,,,2.7,1.7,2.1*3C

$GPGSV,3,1,09,02,19,269,27,04,12,235,26,07,06,039,33,08,35,232,31*73

$GPGSV,3,2,09,10,22,314,31,13,68,085,34,16,19,040,39,23,00,000,30*71

$GPGSV,3,3,09,27,67,235,34*47

$GPGGA,100016.00,5001.2444,N,03613.0529,E,1,06,1.7,135.8,M,11.6,M,,*68

$GPRMC,100016.00,A,5001.2444,N,03613.0529,E,2.36,354.79,250706,6.5,W,A*24

$GPGSA,A,3,07,08,10,13,16,27,,,,,,,2.7,1.7,2.1*3C

$GPGSV,3,1,09,02,19,269,27,04,12,235,26,07,06,039,32,08,35,232,29*7B

$GPGSV,3,2,09,10,22,314,32,13,68,085,36,16,19,040,39,23,00,000,30*70

$GPGSV,3,3,09,27,67,235,34*47

$GPGGA,100017.00,5001.2446,N,03613.0536,E,1,06,1.7,135.0,M,11.6,M,,*6D

$GPRMC,100017.00,A,5001.2446,N,03613.0536,E,2.38,2.90,250706,6.5,W,A*20

$GPGSA,A,3,07,08,10,13,16,27,,,,,,,2.7,1.7,2.1*3C

$GPGSV,3,1,09,02,19,269,29,04,12,235,24,07,06,039,32,08,35,232,30*7F

$GPGSV,3,2,09,10,22,314,33,13,68,085,36,16,19,040,38,23,00,000,31*71

$GPGSV,3,3,09,27,67,235,34*47

$GPGGA,100018.00,5001.2450,N,03613.0542,E,1,06,3.2,134.4,M,11.6,M,,*64

$GPRMC,100018.00,A,5001.2450,N,03613.0542,E,1.52,27.87,250706,6.5,W,A*15

$GPGSA,A,3,02,07,08,13,16,27,,,,,,,4.1,3.2,2.6*3F

$GPGSV,3,1,09,02,19,269,29,04,12,235,24,07,06,039,29,08,35,232,30*75

$GPGSV,3,2,09,10,22,314,33,13,68,085,35,16,19,040,37,23,00,000,29*74

$GPGSV,3,3,09,27,67,235,33*40

$GPGGA,100019.00,5001.2456,N,03613.0543,E,1,06,3.2,134.7,M,11.6,M,,*61

$GPRMC,100019.00,A,5001.2456,N,03613.0543,E,2.28,353.01,250706,6.5,W,A*23

$GPGSA,A,3,02,07,08,13,16,27,,,,,,,4.1,3.2,2.6*3F

$GPGSV,3,1,09,02,19,269,31,04,12,235,24,07,06,039,28,08,35,232,33*7E

$GPGSV,3,2,09,10,22,314,35,13,68,085,33,16,19,040,37,23,00,000,29*74

$GPGSV,3,3,09,27,67,235,33*40

$GPGGA,100020.00,5001.2477,N,03613.0539,E,1,06,3.2,138.2,M,11.6,M,,*6C

$GPRMC,100020.00,A,5001.2477,N,03613.0539,E,3.22,339.55,250706,6.5,W,A*21

$GPGSA,A,3,02,07,08,13,16,27,,,,,,,4.1,3.2,2.6*3F

$GPGSV,3,1,09,02,19,269,32,04,12,235,25,07,06,039,28,08,35,232,31*7E

$GPGSV,3,2,09,10,22,314,35,13,68,085,33,16,19,040,36,23,00,000,28*74

$GPGSV,3,3,09,27,67,235,34*47

$GPGGA,100021.00,5001.2480,N,03613.0535,E,1,07,1.6,137.7,M,11.6,M,,*64

$GPRMC,100021.00,A,5001.2480,N,03613.0535,E,2.37,342.69,250706,6.5,W,A*22

$GPGSA,A,3,02,07,08,10,13,16,27,,,,,,2.5,1.6,1.9*36

$GPGSV,3,1,09,02,19,269,32,04,12,235,00,07,06,039,31,08,35,232,31*71

$GPGSV,3,2,09,10,22,314,36,13,68,085,34,16,19,040,35,23,00,000,28*73

$GPGSV,3,3,09,27,67,235,35*46

$GPGGA,100022.00,5001.2484,N,03613.0532,E,1,07,1.6,137.2,M,11.6,M,,*61

$GPRMC,100022.00,A,5001.2484,N,03613.0532,E,2.17,342.25,250706,6.5,W,A*28

$GPGSA,A,3,02,07,08,10,13,16,27,,,,,,2.5,1.6,1.9*36

$GPGSV,3,1,09,02,19,269,30,04,12,235,00,07,06,039,31,08,35,232,33*71

$GPGSV,3,2,09,10,22,314,35,13,68,085,34,16,19,040,35,23,00,000,28*70

$GPGSV,3,3,09,27,67,235,35*46

$GPGGA,100023.00,5001.2487,N,03613.0529,E,1,07,1.6,136.9,M,11.6,M,,*63

$GPRMC,100023.00,A,5001.2487,N,03613.0529,E,2.16,346.48,250706,6.5,W,A*2E

$GPGSA,A,3,02,07,08,10,13,16,27,,,,,,2.5,1.6,1.9*36

$GPGSV,3,1,09,02,19,269,31,04,12,235,22,07,06,039,27,08,35,232,29*7C

$GPGSV,3,2,09,10,22,314,35,13,68,085,34,16,19,040,35,23,00,000,31*78

$GPGSV,3,3,09,27,67,235,33*40

$GPGGA,100024.00,5001.2492,N,03613.0526,E,1,07,1.6,136.7,M,11.6,M,,*61

$GPRMC,100024.00,A,5001.2492,N,03613.0526,E,2.26,347.79,250706,6.5,W,A*22

$GPGSA,A,3,02,07,08,10,13,16,27,,,,,,2.5,1.6,1.9*36

$GPGSV,3,1,09,02,19,269,31,04,12,235,22,07,06,039,30,08,35,232,29*7A

$GPGSV,3,2,09,10,22,314,37,13,68,085,34,16,19,040,35,23,00,000,29*73

$GPGSV,3,3,09,27,67,235,34*47

$GPGGA,100025.00,5001.2498,N,03613.0523,E,1,07,1.6,136.4,M,11.6,M,,*6C

$GPRMC,100025.00,A,5001.2498,N,03613.0523,E,1.90,350.70,250706,6.5,W,A*2D

$GPGSA,A,3,02,07,08,10,13,16,27,,,,,,2.5,1.6,1.9*36

$GPGSV,3,1,09,02,19,269,29,04,12,235,22,07,06,039,30,08,35,232,33*78

$GPGSV,3,2,09,10,22,314,38,13,68,085,34,16,19,040,35,23,00,000,29*7C

$GPGSV,3,3,09,27,67,235,34*47

$GPGGA,100026.00,5001.2505,N,03613.0519,E,1,07,1.6,136.4,M,11.6,M,,*63

$GPRMC,100026.00,A,5001.2505,N,03613.0519,E,2.15,347.10,250706,6.5,W,A*2C

$GPGSA,A,3,02,07,08,10,13,16,27,,,,,,2.5,1.6,1.9*36

$GPGSV,3,1,09,02,19,269,31,04,12,235,24,07,06,039,31,08,35,232,36*73

$GPGSV,3,2,09,10,22,314,38,13,68,085,34,16,19,040,35,23,00,000,31*75

$GPGSV,3,3,09,27,67,235,35*46

$GPGGA,100027.00,5001.2514,N,03613.0515,E,1,07,1.6,136.7,M,11.6,M,,*6D

$GPRMC,100027.00,A,5001.2514,N,03613.0515,E,2.06,343.93,250706,6.5,W,A*2C

$GPGSA,A,3,02,07,08,10,13,16,27,,,,,,2.5,1.6,1.9*36

$GPGSV,3,1,09,02,19,269,31,04,12,235,26,07,06,039,28,08,35,232,36*79

$GPGSV,3,2,09,10,22,314,37,13,68,085,35,16,19,040,36,23,00,000,33*7A

$GPGSV,3,3,09,27,67,235,36*45

$GPGGA,100028.00,5001.2523,N,03613.0510,E,1,07,1.6,137.3,M,11.6,M,,*66

$GPRMC,100028.00,A,5001.2523,N,03613.0510,E,2.26,340.25,250706,6.5,W,A*2E

$GPGSA,A,3,02,07,08,10,13,16,27,,,,,,2.5,1.6,1.9*36

$GPGSV,3,1,09,02,19,269,28,04,12,235,26,07,06,039,28,08,35,232,32*75

$GPGSV,3,2,09,10,23,314,36,13,68,085,36,16,19,040,36,23,00,000,33*79

$GPGSV,3,3,09,27,67,235,36*45

$GPGGA,100029.00,5001.2526,N,03613.0507,E,1,07,1.6,136.8,M,11.6,M,,*6E

$GPRMC,100029.00,A,5001.2526,N,03613.0507,E,1.30,343.57,250706,6.5,W,A*2E

$GPGSA,A,3,02,07,08,10,13,16,27,,,,,,2.5,1.6,1.9*36

$GPGSV,3,1,09,02,19,269,32,04,12,235,28,07,06,039,26,08,35,232,32*7E

$GPGSV,3,2,09,10,23,314,36,13,68,085,36,16,19,040,36,23,00,000,31*7B

$GPGSV,3,3,09,27,67,235,36*45

$GPGGA,100030.00,5001.2531,N,03613.0504,E,1,06,1.8,136.3,M,11.6,M,,*67

$GPRMC,100030.00,A,5001.2531,N,03613.0504,E,1.40,341.38,250706,6.5,W,A*2F

$GPGSA,A,3,02,08,10,13,16,27,,,,,,,3.0,1.8,2.4*35

$GPGSV,3,1,09,02,19,269,32,04,12,235,30,07,06,039,25,08,35,232,28*7F

$GPGSV,3,2,09,10,23,314,36,13,68,085,36,16,19,040,37,23,00,000,31*7A

$GPGSV,3,3,09,27,67,235,36*45

$GPGGA,100031.00,5001.2539,N,03613.0499,E,1,06,1.8,136.6,M,11.6,M,,*6E

$GPRMC,100031.00,A,5001.2539,N,03613.0499,E,1.91,337.57,250706,6.5,W,A*27

$GPGSA,A,3,02,08,10,13,16,27,,,,,,,3.0,1.8,2.4*35

$GPGSV,3,1,09,02,19,269,32,04,12,235,30,07,06,039,25,08,35,232,31*77

$GPGSV,3,2,09,10,23,314,37,13,68,085,35,16,19,040,37,23,00,000,36*7F

$GPGSV,3,3,09,27,67,235,33*40

$GPGGA,100032.00,5001.2543,N,03613.0495,E,1,06,1.8,136.0,M,11.6,M,,*6A

$GPRMC,100032.00,A,5001.2543,N,03613.0495,E,1.37,329.92,250706,6.5,W,A*2F

$GPGSA,A,3,02,08,10,13,16,27,,,,,,,3.0,1.8,2.4*35

$GPGSV,3,1,09,02,19,269,32,04,12,235,26,07,06,039,22,08,35,232,31*77

$GPGSV,3,2,09,10,23,314,37,13,68,085,35,16,19,040,37,23,00,000,36*7F

$GPGSV,3,3,09,27,67,235,34*47

$GPGGA,100033.00,5001.2548,N,03613.0492,E,1,06,1.8,135.6,M,11.6,M,,*62

$GPRMC,10003$GPGSV,3,1,09,02,19,269,37,04,12,235,25,07,06,039,21,08,35,232,32*71

$GPGSV,3,2,09,10,23,314,37,13,68,085,36,16,19,040,38,23,00,000,36*73

$GPGSV,3,3,09,27,67,235,34*47

$GPGGA,100036.00,5001.2565,N,03613.0487,E,1,06,1.8,135.2,M,11.6,M,,*68

$GPRMC,100036.00,A,5001.2565,N,03613.0487,E,1.42,349.57,250706,6.5,W,A*21

$GPGSA,A,3,02,08,10,13,16,27,,,,,,,3.0,1.8,2.4*35

$GPGSV,3,1,09,02,19,269,34,04,12,235,25,07,06,039,22,08,35,232,30*73

$GPGSV,3,2,09,10,23,314,35,13,68,085,35,16,19,040,38,23,00,000,36*72

$GPGSV,3,3,09,27,67,235,34*47

$GPGGA,100037.00,5001.2571,N,03613.0488,E,1,06,1.8,135.2,M,11.6,M,,*63

$GPRMC,100037.00,A,5001.2571,N,03613.0488,E,0.73,9.41,250706,6.5,W,A*29

$GPGSA,A,3,02,08,10,13,16,27,,,,,,,3.0,1.8,2.4*35

$GPGSV,3,1,09,02,19,269,36,04,12,235,27,07,06,039,22,08,35,232,30*73

$GPGSV,3,2,09,10,23,314,34,13,68,085,35,16,19,040,38,23,00,000,37*72

$GPGSV,3,3,09,27,67,235,35*46

$GPGGA,100038.00,5001.2578,N,03613.0488,E,1,06,1.8,135.6,M,11.6,M,,*61

