$GPGGA,000235.981,39,194,26,27,16,180,,07,16,282,,10,15,289,*76

$GPGSV,3,3,09,02,09,058,*46

$GPRMC,073544.266,A,5001.2610,N,03613.0625,E,0.09,100.00,050706,,,A*66

$GPGSA,A,3,11,20,01,25,,,,,,,,,8.6,3.4,8.0*37

$GPGSV,3,1,09,20,73,300,26,13,71,063,,25,51,090,27,01,46,058,30*70

$GPGSV,3,2,09,11,39,194,26,27,16,180,,07,16,282,,10,15,289,*76

$GPGSV,3,3,09,02,09,058,*46

$GPRMC,073545.266,A,5001.2614,N,03613.0621,E,0.14,127.57,050706,,,A*6C

$GPGGA,073546.266,5001.2616,N,03613.0619,E,1,04,3.4,141.9,M,,,,0000*0E

$GPGSA,A,3,11,20,01,25,,,,,,,,,8.6,3.4,8.0*37

$GPGSV,3,1,09,20,73,300,27,13,71,063,,25,51,090,27,01,46,058,29*79

$GPGSV,3,2,09,11,39,194,27,27,16,180,,07,16,282,,10,15,289,*77

$GPGSV,3,3,09,02,09,058,*46

$GPRMC,073546.266,A,5001.2616,N,03613.0619,E,0.16,125.66,050706,,,A*64

$GPGGA,073547.266,5001.2617,N,03613.0616,E,1,04,3.4,141.4,M,,,,0000*0C

$GPGSA,A,3,11,20,01,25,,,,,,,,,8.6,3.4,8.0*37

$GPGSV,3,1,09,20,73,300,27,13,71,063,,25,51,090,27,01,46,058,30*71

$GPGSV,3,2,09,11,39,194,27,27,17,180,,07,16,282,,10,15,289,*76

$GPGSV,3,3,09,02,09,057,*49

$GPRMC,073547.266,A,5001.2617,N,03613.0616,E,0.19,129.95,050706,,,A*64

$GPGGA,073548.265,5001.2617,N,03613.0615,E,1,04,3.4,141.2,M,,,,0000*05

$GPGSA,A,3,11,20,01,25,,,,,,,,,8.6,3.4,7.9*31

$GPGSV,3,1,09,20,73,300,26,13,71,063,,25,51,090,27,01,46,058,30*70

$GPGSV,3,2,09,11,39,194,27,27,17,180,,07,16,282,,10,15,289,*76

$GPGSV,3,3,09,02,09,057,*49

$GPRMC,073548.265,A,5001.2617,N,03613.0615,E,0.19,116.76,050706,,,A*6A

$GPGGA,073549.265,5001.2620,N,03613.0607,E,1,04,3.4,141.4,M,,,,0000*05

$GPGSA,A,3,11,20,01,25,,,,,,,,,8.6,3.4,7.9*31

$GPGSV,3,1,09,20,73,300,26,13,71,063,,25,51,090,27,01,46,058,30*70

$GPGSV,3,2,09,11,39,194,26,27,17,180,,07,16,282,,10,15,289,*77

$GPGSV,3,3,09,02,09,057,*49

$GPRMC,073549.265,A,5001.2620,N,03613.0607,E,0.13,136.79,050706,,,A*6B

$GPGGA,073550.265,5001.2622,N,03613.0599,E,1,04,3.4,141.2,M,,,,0000*0D

$GPGSA,A,3,11,20,01,25,,,,,,,,,8.6,3.4,7.9*31

$GPGSV,3,1,09,20,73,300,26,13,71,063,,25,51,090,28,01,46,058,30*7F

$GPGSV,3,2,09,11,39,194,27,27,17,180,,07,16,282,,10,15,289,*76

$GPGSV,3,3,09,02,09,057,*49

$GPRMC,073550.265,A,5001.2622,N,03613.0599,E,0.10,144.56,050706,,,A*6E

$GPGGA,073551.265,5001.2623,N,03613.0595,E,1,04,3.4,140.3,M,,,,0000*01

$GPGSA,A,3,11,20,01,25,,,,,,,,,8.6,3.4,7.9*31

$GPGSV,3,1,09,20,73,300,27,13,71,063,,25,51,090,27,01,46,058,30*71

$GPGSV,3,2,09,11,39,194,26,27,17,180,,07,16,282,,10,15,289,*77

$GPGSV,3,3,09,02,09,057,*49

$GPRMC,073551.265,A,5001.2623,N,03613.0595,E,0.08,97.77,050706,,,A*57

$GPGGA,073552.265,5001.2621,N,03613.0595,E,1,04,3.4,140.2,M,,,,0000*01

$GPGSA,A,3,11,20,01,25,,,,,,,,,8.6,3.4,7.9*31

$GPGSV,3,1,09,20,73,300,27,13,71,063,,25,51,090,28,01,46,058,30*7E

$GPGSV,3,2,09,11,39,194,26,27,17,180,,07,16,282,,10,15,289,*77

$GPGSV,3,3,09,02,09,057,*49

$GPRMC,073552.265,A,5001.2621,N,03613.0595,E,0.11,174.97,050706,,,A*6C

$GPGGA,073553.265,5001.2621,N,03613.0593,E,1,04,3.4,140.3,M,,,,0000*07

$GPGSA,A,3,11,20,01,25,,,,,,,,,8.6,3.4,7.9*31

$GPGSV,3,1,09,20,73,300,26,13,71,063,,25,51,090,28,01,46,058,30*7F

$GPGSV,3,2,09,11,39,194,26,27,17,180,,07,16,282,,10,15,289,*77

$GPGSV,3,3,09,02,09,057,*49

$GPRMC,073553.265,A,5001.2621,N,03613.0593,E,0.13,259.57,050706,,,A*69

$GPGGA,073554.265,5001.2621,N,03613.0593,E,1,04,3.4,140.5,M,,,,0000*06

$GPGSA,A,3,11,20,01,25,,,,,,,,,8.6,3.4,7.9*31

$GPGSV,3,1,09,20,73,300,27,13,71,063,,25,51,090,28,01,46,058,30*7E

$GPGSV,3,2,09,11,39,194,27,27,17,180,,07,16,282,,10,15,289,*76

$GPGSV,3,3,09,02,09,057,*49

$GPRMC,073554.265,A,5001.2621,N,03613.0593,E,0.39,31.35,050706,,,A*5E

$GPGGA,073555.265,5001.2620,N,03613.0597,E,1,04,3.4,141.0,M,,,,0000*06

$GPGSA,A,3,11,20,01,25,,,,,,,,,8.6,3.4,7.9*31

$GPGSV,3,1,09,20,73,300,25,13,71,063,,25,51,090,28,01,46,058,30*7C

$GPGSV,3,2,09,11,39,194,27,27,17,180,,07,16,282,,10,15,289,*76

$GPGSV,3,3,09,02,09,057,*49

$GPRMC,073555.265,A,5001.2620,N,03613.0597,E,0.33,53.13,050706,,,A*50

$GPGGA,073556.265,5001.2618,N,03613.0600,E,1,04,3.4,141.3,M,,,,0000*00

$GPGSA,A,3,11,20,01,25,,,,,,,,,8.6,3.4,7.9*31

$GPGSV,3,1,09,20,73,300,26,13,71,063,,25,51,090,27,01,46,058,29*78

$GPGSV,3,2,09,11,39,194,27,27,17,180,,07,16,282,,10,15,289,*76

$GPGSV,3,3,09,02,09,057,*49

$GPRMC,073556.265,A,5001.2618,N,03613.0600,E,0.19,281.26,050706,,,A*66

$GPGGA,073557.265,5001.2617,N,03613.0603,E,1,04,3.4,141.4,M,,,,0000*0A

$GPGSA,A,3,11,20,01,25,,,,,,,,,8.6,3.4,7.9*31

$GPGSV,3,1,09,20,73,300,27,13,71,063,,25,51,090,28,01,46,058,30*7E

$GPGSV,3,2,09,11,39,194,27,27,17,180,,07,16,282,,10,15,289,*76

$GPGSV,3,3,09,02,09,057,*49

$GPRMC,073557.265,A,5001.2617,N,03613.0603,E,0.15,48.91,050706,,,A*5C

$GPGGA,073558.265,5001.2618,N,03613.0606,E,1,04,3.4,140.6,M,,,,0000*0C

$GPGSA,A,3,11,20,01,25,,,,,,,,,8.6,3.4,7.9*31

$GPGSV,3,1,09,20,73,300,25,13,71,063,,25,51,090,28,01,46,058,30*7C

$GPGSV,3,2,09,11,39,194,26,27,17,180,,07,16,282,,10,15,289,*77

$GPGSV,3,3,09,02,09,057,*49

$GPRMC,073558.265,A,5001.2618,N,03613.0606,E,0.41,52.52,050706,,,A*5C

$GPGGA,073559.265,5001.2618,N,03613.0604,E,1,04,3.4,139.8,M,,,,0000*0F

$GPGSA,A,3,11,20,01,25,,,,,,,,,8.6,3.4,7.9*31

$GPGSV,3,1,09,20,73,300,25,13,71,063,,25,51,090,28,01,46,058,30*7C

$GPGSV,3,2,09,11,39,194,27,27,17,180,,07,16,282,,10,15,289,*76

$GPGSV,3,3,09,02,09,057,*49

$GPRMC,073559.265,A,5001.2618,N,03613.0604,E,0.04,300.12,050706,,,A*6E

$GPGGA,073600.265,5001.2617,N,03613.0604,E,1,04,3.4,139.3,M,,,,0000*04

$GPGSA,A,3,11,20,01,25,,,,,,,,,8.6,3.4,7.9*31

$GPGSV,3,1,09,20,73,300,25,13,71,063,,25,51,090,28,01,46,058,31*7D

$GPGSV,3,2,09,11,39,194,27,27,17,180,,07,16,282,,10,15,289,*76

$GPGSV,3,3,09,02,09,057,*49

$GPRMC,073600.265,A,5001.2617,N,03613.0604,E,0.10,279.44,050706,,,A*67

$GPGGA,073601.265,5001.2616,N,03613.0606,E,1,04,3.4,139.2,M,,,,0000*07

$GPGSA,A,3,11,20,01,25,,,,,,,,,8.6,3.4,7.9*31

$GPGSV,3,1,09,20,73,300,26,13,71,063,,25,51,090,27,01,46,058,30*70

$GPGSV,3,2,09,11,39,194,26,27,17,180,,07,16,282,,10,15,289,*77

$GPGSV,3,3,09,02,09,057,*49

$GPRMC,073601.265,A,5001.2616,N,03613.0606,E,0.20,52.23,050706,,,A*5C

$GPGGA,073602.265,5001.2616,N,03613.0606,E,1,04,3.4,138.4,M,,,,0000*03

$GPGSA,A,3,11,20,01,25,,,,,,,,,8.6,3.4,7.9*31

$GPGSV,3,1,09,20,73,300,26,13,71,063,,25,51,090,27,01,46,058,31*71

$GPGSV,3,2,09,11,39,194,27,27,17,180,,07,16,282,,10,15,289,*76

$GPGSV,3,3,09,02,09,057,*49

$GPRMC,073602.265,A,5001.2616,N,03613.0606,E,0.25,62.38,050706,,,A*53

$GPGGA,073603.265,5001.2616,N,03613.0607,E,1,04,3.4,138.3,M,,,,0000*04

$GPGSA,A,3,11,20,01,25,,,,,,,,,8.6,3.4,7.9*31

$GPGSV,3,1,09,20,73,300,25,13,71,063,,25,51,090,27,01,46,058,30*73

$GPGSV,3,2,09,11,39,194,27,27,17,180,,07,16,282,,10,15,289,*76

$GPGSV,3,3,09,02,09,057,*49

$GPRMC,073603.265,A,5001.2616,N,03613.0607,E,0.24,84.64,050706,,,A*53

$GPGGA,073604.264,5001.2615,N,03613.0609,E,1,04,3.4,138.8,M,,,,0000*04

$GPGSA,A,3,11,20,01,25,,,,,,,,,8.6,3.4,7.9*31

$GPGSV,3,1,09,20,73,300,26,13,71,063,,25,51,090,27,01,46,058,31*71

$GPGSV,3,2,09,11,39,194,26,27,17,180,,07,16,282,,10,15,289,*77

$GPGSV,3,3,09,02,09,057,*49

$GPRMC,073604.264,A,5001.2615,N,03613.0609,E,0.20,85.81,050706,,,A*56

$GPGGA,073605.264,5001.2614,N,03613.0611,E,1,04,3.4,139.2,M,,,,0000*06

$GPGSA,A,3,11,20,01,25,,,,,,,,,8.6,3.4,7.9*31

$GPGSV,3,1,09,20,73,300,26,13,71,063,,25,51,090,27,01,46,058,31*71

$GPGSV,3,2,09,11,39,194,27,27,17,180,,07,16,282,,10,15,289,*76

$GPGSV,3,3,09,02,09,057,*49

$GPRMC,073605.264,A,5001.2614,N,03613.0611,E,0.19,63.90,050706,,,A*5D

$GPGGA,073606.264,5001.2613,N,03613.0613,E,1,04,3.4,139.3,M,,,,0000*01

$GPGSA,A,3,11,20,01,25,,,,,,,,,8.6,3.4,7.9*31

$GPGSV,3,1,09,20,73,300,26,13,71,063,,25,51,090,28,01,46,058,29*77

$GPGSV,3,2,09,11,39,194,26,27,17,180,,07,16,282,,10,15,289,*77

$GPGSV,3,3,09,02,09,057,*49

$GPRMC,073606.264,A,5001.2613,N,03613.0613,E,0.10,50.01,050706,,,A*5A

$GPGGA,073607.264,5001.2611,N,03613.0612,E,1,04,3.4,139.0,M,,,,0000*00

$GPGSA,A,3,11,20,01,25,,,,,,,,,8.6,3.4,7.9*31

$GPGSV,3,1,09,20,73,300,26,13,71,063,,25,51,090,28,01,46,058,29*77

$GPGSV,3,2,09,11,39,194,26,27,17,180,,07,16,282,,10,15,289,*77

$GPGSV,3,3,09,02,09,057,*49

$GPRMC,073607.264,A,5001.2611,N,03613.0612,E,0.24,219.85,050706,,,A*6C

$GPGGA,073608.264,5001.2611,N,03613.0611,E,1,04,3.4,138.8,M,,,,0000*05

$GPGSA,A,3,11,20,01,25,,,,,,,,,8.6,3.4,7.9*31

$GPGSV,3,1,09,20,73,300,27,13,71,063,,25,51,090,29,01,46,058,30*7F

$GPGSV,3,2,09,11,39,194,26,27,17,180,,07,16,282,,10,15,289,*77

$GPGSV,3,3,09,02,09,057,*49

$GPRMC,073608.264,A,5001.2611,N,03613.0611,E,0.21,249.62,050706,,,A*69

$GPGGA,073609.264,5001.2611,N,03613.0610,E,1,04,3.4,137.9,M,,,,0000*0B

$GPGSA,A,3,11,20,01,25,,,,,,,,,8.5,3.4,7.9*32

$GPGSV,3,1,09,20,73,300,26,13,71,063,,25,51,090,29,01,46,058,30*7E

$GPGSV,3,2,09,11,39,194,26,27,17,180,,07,16,282,,10,15,289,*77

$GPGSV,3,3,09,02,09,057,*49

$GPRMC,073609.264,A,5001.2611,N,03613.0610,E,0.38,36.89,050706,,,A*5E

$GPGGA,073610.264,5001.2610,N,03613.0608,E,1,04,3.4,137.2,M,,,,0000*00

$GPGSA,A,3,11,20,01,25,,,,,,,,,8.5,3.4,7.9*32

$GPGSV,3,1,09,20,73,300,26,13,71,063,,25,51,090,29,01,46,058,30*7E

$GPGSV,3,2,09,11,39,194,27,27,17,180,,07,16,282,,10,15,289,*76

$GPGSV,3,3,09,02,09,057,*49

$GPRMC,073610.264,A,5001.2610,N,03613.0608,E,0.02,13.72,050706,,,A*54

$GPGGA,073611.264,5001.2611,N,03613.0604,E,1,04,3.4,136.4,M,,,,0000*0B

$GPGSA,A,3,11,20,01,25,,,,,,,,,8.5,3.4,7.8*33

$GPGSV,2,1,08,20,74,300,27,13,71,063,,25,51,089,27,01,46,058,30*7E

$GPGSV,2,2,08,11,39,194,28,27,17,180,,07,16,281,,10,15,289,*7A

$GPRMC,073611.264,A,5001.2611,N,03613.0604,E,0.11,312.84,050706,,,A*61

$GPGGA,073612.264,5001.2611,N,03613.0605,E,1,04,3.4,135.8,M,,,,0000*06

$GPGSA,A,3,11,20,01,25,,,,,,,,,8.5,3.4,7.8*33

$GPGSV,2,1,08,20,74,300,26,13,71,063,,25,51,089,27,01,46,058,31*7E

$GPGSV,2,2,08,11,39,194,26,27,17,180,,07,16,281,,10,15,289,*74

$GPRMC,073612.264,A,5001.2611,N,03613.0605,E,0.36,51.53,050706,,,A*58

$GPGGA,073613.264,5001.2612,N,03613.0605,E,1,04,3.4,135.2,M,,,,0000*0E

$GPGSA,A,3,11,20,01,25,,,,,,,,,8.5,3.4,7.8*33

$GPGSV,2,1,08,20,74,300,27,13,71,063,,25,51,089,28,01,46,058,31*70

$GPGSV,2,2,08,11,39,194,25,27,17,180,,07,16,281,,10,15,289,*77

$GPRMC,073613.264,A,5001.2612,N,03613.0605,E,0.35,54.45,050706,,,A*5B

$GPGGA,073614.264,5001.2613,N,03613.0605,E,1,04,3.4,134.7,M,,,,0000*0C

$GPGSA,A,3,11,20,01,25,,,,,,,,,8.5,3.4,7.8*33

$GPGSV,2,1,08,20,74,300,26,13,71,063,,25,51,089,28,01,46,058,30*70

$GPGSV,2,2,08,11,39,194,27,27,17,180,,07,16,281,,10,15,289,*75

$GPRMC,073614.264,A,5001.2613,N,03613.0605,E,0.32,82.67,050706,,,A*51

$GPGGA,073615.264,5001.2613,N,03613.0604,E,1,04,3.4,133.9,M,,,,0000*05

$GPGSA,A,3,11,20,01,25,,,,,,,,,8.5,3.4,7.8*33

$GPGSV,2,1,08,20,74,300,26,13,71,063,,25,51,089,27,01,46,058,31*7E

$GPGSV,2,2,08,11,39,194,26,27,17,180,,07,16,281,,10,15,289,*74

$GPRMC,073615.264,A,5001.2613,N,03613.0604,E,0.28,85.79,050706,,,A*52

$GPGGA,073616.264,5001.2615,N,03613.0604,E,1,04,3.4,132.9,M,,,,0000*01

$GPGSA,A,3,11,20,01,25,,,,,,,,,8.5,3.4,7.8*33

$GPGSV,2,1,08,20,74,300,26,13,71,063,,25,51,089,28,01,46,058,30*70

$GPGSV,2,2,08,11,39,194,25,27,17,180,,07,16,281,,10,15,289,*77

$GPRMC,073616.264,A,5001.2615,N,03613.0604,E,0.52,65.34,050706,,,A*5D

$GPGGA,073617.264,5001.2615,N,03613.0606,E,1,04,3.4,132.2,M,,,,0000*09

$GPGSA,A,3,11,20,01,25,,,,,,,,,8.5,3.4,7.8*33

$GPGSV,2,1,08,20,74,300,26,13,70,062,,25,51,089,28,01,46,058,30*70

$GPGSV,2,2,08,11,39,194,27,27,17,180,,07,16,281,,10,15,289,*75

$GPRMC,073617.264,A,5001.2615,N,03613.0606,E,0.55,85.93,050706,,,A*5A

$GPGGA,073618.264,5001.2616,N,03613.0608,E,1,04,3.4,131.7,M,,,,0000*0D

$GPGSA,A,3,11,20,01,25,,,,,,,,,8.5,3.4,7.8*33

$GPGSV,2,1,08,20,74,300,26,13,70,062,,25,51,089,29,01,46,058,31*70

$GPGSV,2,2,08,11,39,194,26,27,17,180,,07,16,281,,10,15,289,*74

$GPRMC,073618.264,A,5001.2616,N,03613.0608,E,0.58,94.96,050706,,,A*50

$GPGGA,073619.264,5001.2616,N,03613.0604,E,1,04,3.4,132.6,M,,,,0000*02

$GPGSA,A,3,11,20,01,25,,,,,,,,,8.5,3.4,7.8*33

$GPGSV,2,1,08,20,74,300,25,13,70,062,,25,51,089,29,01,46,058,30*72

$GPGSV,2,2,08,11,39,194,27,27,17,180,,07,16,281,,10,15,289,*75

$GPRMC,073619.264,A,5001.2616,N,03613.0604,E,0.11,168.42,050706,,,A*6B

$GPGGA,073620.264,5001.2619,N,03613.0603,E,1,04,3.4,133.9,M,,,,0000*0E

$GPGSA,A,3,11,20,01,25,,,,,,,,,8.5,3.4,7.8*33

$GPGSV,2,1,08,20,74,300,26,13,70,062,,25,51,089,28,01,46,058,30*70

$GPGSV,2,2,08,11,39,194,26,27,17,180,,07,16,281,,10,15,289,*74

$GPRMC,073620.264,A,5001.2619,N,03613.0603,E,0.32,53.17,050706,,,A*51

$GPGGA,073621.263,5001.2621,N,03613.0604,E,1,04,3.4,134.6,M,,,,0000*0C

$GPGSA,A,3,11,20,01,25,,,,,,,,,8.5,3.4,7.8*33

$GPGSV,2,1,08,20,74,300,26,13,70,062,,25,51,089,27,01,46,058,30*7F

$GPGSV,2,2,08,11,39,194,26,27,17,180,,07,16,281,,10,15,289,*74

$GPRMC,073621.263,A,5001.2621,N,03613.0604,E,0.26,46.12,050706,,,A*5F

$GPGGA,073622.263,5001.2622,N,03613.0603,E,1,04,3.4,135.1,M,,,,0000*0D

$GPGSA,A,3,11,20,01,25,,,,,,,,,8.5,3.4,7.8*33

$GPGSV,2,1,08,20,74,300,26,13,70,062,,25,51,089,27,01,46,058,30*7F

$GPGSV,2,2,08,11,39,194,27,27,17,180,,07,16,281,,10,15,289,*75

$GPRMC,073622.263,A,5001.2622,N,03613.0603,E,0.02,210.61,050706,,,A*6B

$GPGGA,073623.263,5001.2623,N,03613.0602,E,1,04,3.4,134.8,M,,,,0000*04

$GPGSA,A,3,11,20,01,25,,,,,,,,,8.5,3.4,7.8*33

$GPGSV,2,1,08,20,74,300,27,13,70,062,,25,51,089,28,01,46,058,30*71

$GPGSV,2,2,08,11,39,194,28,27,17,180,,07,16,281,,10,15,289,*7A

$GPRMC,073623.263,A,5001.2623,N,03613.0602,E,0.04,324.60,050706,,,A*6B

$GPGGA,073624.263,5001.2625,N,03613.0600,E,1,04,3.4,134.1,M,,,,0000*0E

$GPGSA,A,3,11,20,01,25,,,,,,,,,8.5,3.4,7.8*33

$GPGSV,2,1,08,20,74,300,26,13,70,062,,25,51,089,28,01,46,058,30*70

$GPGSV,2,2,08,11,39,194,28,27,17,180,,07,16,281,,10,15,289,*7A

$GPRMC,073624.263,A,5001.2625,N,03613.0600,E,0.16,333.27,050706,,,A*6E

$GPGGA,073625.263,5001.2627,N,03613.0598,E,1,04,3.4,135.4,M,,,,0000*0B

$GPGSA,A,3,11,20,01,25,,,,,,,,,8.5,3.4,7.8*33

$GPGSV,2,1,08,20,74,300,26,13,70,062,,25,51,089,27,01,46,058,30*7F

$GPGSV,2,2,08,11,39,194,27,27,17,180,,07,16,281,,10,15,289,*75

$GPRMC,073625.263,A,5001.2627,N,03613.0598,E,0.26,289.40,050706,,,A*6D

$GPGGA,073626.263,5001.2627,N,03613.0595,E,1,04,3.4,136.0,M,,,,0000*02

$GPGSA,A,3,11,20,01,25,,,,,,,,,8.5,3.4,7.8*33

$GPGSV,2,1,08,20,74,300,27,13,70,062,,25,51,089,27,01,46,058,30*7E

$GPGSV,2,2,08,11,39,194,27,27,17,180,,07,16,281,,10,15,289,*75

$GPRMC,073626.263,A,5001.2627,N,03613.0595,E,0.10,325.60,050706,,,A*63

$GPGGA,073627.263,5001.2627,N,03613.0594,E,1,04,3.4,136.2,M,,,,0000*00

$GPGSA,A,3,11,20,01,25,,,,,,,,,8.5,3.4,7.8*33

$GPGSV,2,1,08,20,74,300,27,13,70,062,,25,51,089,29,01,46,058,31*71

$GPGSV,2,2,08,11,39,194,28,27,17,180,,07,16,281,,10,15,289,*7A

$GPRMC,073627.263,A,5001.2627,N,03613.0594,E,0.27,24.85,050706,,,A*5E

$GPGGA,073628.263,5001.2628,N,03613.0594,E,1,04,3.4,136.1,M,,,,0000*03

$GPGSA,A,3,11,20,01,25,,,,,,,,,8.5,3.4,7.8*33

$GPGSV,2,1,08,20,74,300,26,13,70,062,,25,51,089,27,01,46,058,30*7F

$GPGSV,2,2,08,11,39,194,27,27,17,180,,07,16,281,,10,15,289,*75

$GPRMC,073628.263,A,5001.2628,N,03613.0594,E,0.24,36.00,050706,,,A*53

$GPGGA,073629.263,5001.2628,N,03613.0592,E,1,04,3.4,135.6,M,,,,0000*00

$GPGSA,A,3,11,20,01,25,,,,,,,,,8.5,3.4,7.8*33

$GPGSV,2,1,08,20,74,300,26,13,70,062,,25,51,089,29,01,46,058,30*71

$GPGSV,2,2,08,11,39,194,27,27,17,180,,07,16,281,,10,15,289,*75

$GPRMC,073629.263,A,5001.2628,N,03613.0592,E,0.13,244.36,050706,,,A*62

$GPGGA,073630.263,5001.2629,N,03613.0589,E,1,04,3.4,135.2,M,,,,0000*07

$GPGSA,A,3,11,20,01,25,,,,,,,,,8.5,3.4,7.8*33

$GPGSV,2,1,08,20,74,300,27,13,70,062,,25,51,089,29,01,46,058,31*71

$GPGSV,2,2,08,11,39,194,28,27,17,180,,07,16,281,,10,15,289,*7A

$GPRMC,073630.263,A,5001.2629,N,03613.0589,E,0.13,350.18,050706,,,A*69

$GPGGA,073631.263,5001.2631,N,03613.0587,E,1,04,3.4,135.4,M,,,,0000*07

$GPGSA,A,3,11,20,01,25,,,,,,,,,8.5,3.4,7.8*33

$GPGSV,2,1,08,20,74,300,26,13,70,062,,25,51,089,29,01,46,058,31*70

$GPGSV,2,2,08,11,39,194,27,27,17,180,,07,16,281,,10,15,289,*75

$GPRMC,073631.263,A,5001.2631,N,03613.0587,E,0.40,44.08,050706,,,A*5E

$GPGGA,073632.263,5001.2632,N,03613.0587,E,1,04,3.4,134.5,M,,,,0000*07

$GPGSA,A,3,11,20,01,25,,,,,,,,,8.5,3.4,7.8*33

$GPGSV,2,1,08,20,74,300,26,13,70,062,,25,51,089,29,01,46,058,30*71

$GPGSV,2,2,08,11,39,194,26,27,17,180,,07,16,281,,10,15,289,*74

$GPRMC,073632.263,A,5001.2632,N,03613.0587,E,0.06,61.71,050706,,,A*55

$GPGGA,073633.263,5001.2632,N,03613.0586,E,1,04,3.4,134.2,M,,,,0000*00

$GPGSA,A,3,11,20,01,25,,,,,,,,,8.5,3.4,7.8*33

$GPGSV,2,1,08,20,74,300,27,13,70,062,,25,51,089,28,01,46,058,30*71

$GPGSV,2,2,08,11,39,194,27,27,17,180,,07,16,281,,10,15,289,*75

$GPRMC,073633.263,A,5001.2632,N,03613.0586,E,0.21,319.37,050706,,,A*6E

$GPGGA,073634.263,5001.2633,N,03613.0586,E,1,04,3.4,134.3,M,,,,0000*07

$GPGSA,A,3,11,20,01,25,,,,,,,,,8.5,3.4,7.8*33

$GPGSV,2,1,08,20,74,300,26,13,70,062,,25,51,089,28,01,46,058,31*71

$GPGSV,2,2,08,11,39,194,27,27,17,180,,07,16,281,,10,15,289,*75

$GPRMC,073634.263,A,5001.2633,N,03613.0586,E,0.30,20.39,050706,,,A*5F

$GPGGA,073635.263,5001.2634,N,03613.0588,E,1,04,3.4,134.4,M,,,,0000*08

$GPGSA,A,3,11,20,01,25,,,,,,,,,8.5,3.4,7.8*33

$GPGSV,2,1,08,20,74,300,25,13,70,062,,25,51,089,25,01,46,058,27*78

$GPGSV,2,2,08,11,39,194,26,27,17,180,,07,16,281,,10,15,289,*74

$GPRMC,073635.263,A,5001.2634,N,03613.0588,E,0.13,35.94,050706,,,A*55

$GPGGA,073636.263,5001.2634,N,03613.0588,E,1,04,3.4,134.5,M,,,,0000*0A

$GPGSA,A,3,11,20,01,25,,,,,,,,,8.4,3.4,7.7*3D

$GPGSV,2,1,08,20,74,300,26,13,70,062,,25,51,089,28,01,46,058,29*78

$GPGSV,2,2,08,11,39,194,26,27,17,180,,07,16,281,,10,15,289,*74

$GPRMC,073636.263,A,5001.2634,N,03613.0588,E,0.13,171.35,050706,,,A*6C

$GPGGA,073637.262,5001.2635,N,03613.0589,E,1,04,3.4,134.5,M,,,,0000*0A

$GPGSA,A,3,11,20,01,25,,,,,,,,,8.4,3.4,7.7*3D

$GPGSV,2,1,08,20,74,300,27,13,70,062,,25,51,089,27,01,46,058,30*7E

$GPGSV,2,2,08,11,39,194,27,27,17,180,,07,16,281,,10,15,289,*75

$GPRMC,073637.262,A,5001.2635,N,03613.0589,E,0.15,63.29,050706,,,A*55

$GPGGA,073638.262,5001.2635,N,03613.0591,E,1,04,3.4,134.1,M,,,,0000*08

$GPGSA,A,3,11,20,01,25,,,,,,,,,8.4,3.4,7.7*3D

$GPGSV,2,1,08,20,74,300,26,13,70,062,,25,51,089,28,01,46,058,30*70

$GPGSV,2,2,08,11,39,194,27,27,17,180,,07,16,281,,10,15,289,*75

$GPRMC,073638.262,A,5001.2635,N,03613.0591,E,0.35,42.76,050706,,,A*58

$GPGGA,073639.262,5001.2636,N,03613.0590,E,1,04,3.4,134.1,M,,,,0000*0B

$GPGSA,A,3,11,20,01,25,,,,,,,,,8.4,3.4,7.7*3D

$GPGSV,2,1,08,20,74,300,26,13,70,062,,25,51,089,28,01,46,058,30*70

$GPGSV,2,2,08,11,39,194,26,27,17,180,,07,16,281,,10,15,289,*74

$GPRMC,073639.262,A,5001.2636,N,03613.0590,E,0.20,312.17,050706,,,A*6E

$GPGGA,073640.262,5001.2637,N,03613.0588,E,1,04,3.4,133.6,M,,,,0000*0D

$GPGSA,A,3,11,20,01,25,,,,,,,,,8.4,3.4,7.7*3D

$GPGSV,2,1,08,20,74,300,27,13,70,062,,25,51,089,28,01,46,058,30*71

$GPGSV,2,2,08,11,39,194,27,27,17,180,,07,16,281,,10,15,289,*75

$GPRMC,073640.262,A,5001.2637,N,03613.0588,E,0.16,326.67,050706,,,A*6D

$GPGGA,073641.262,5001.2639,N,03613.0587,E,1,04,3.4,132.7,M,,,,0000*0D

$GPGSA,A,3,11,20,01,25,,,,,,,,,8.4,3.4,7.7*3D

$GPGSV,2,1,08,20,74,300,27,13,70,062,,25,51,089,28,01,45,058,31*73

$GPGSV,2,2,08,11,39,194,28,27,17,180,,07,16,281,,10,15,289,*7A

$GPRMC,073641.262,A,5001.2639,N,03613.0587,E,0.26,37.65,050706,,,A*5F

$GPGGA,073642.262,5001.2641,N,03613.0585,E,1,04,3.4,132.2,M,,,,0000*06

$GPGSA,A,3,11,20,01,25,,,,,,,,,8.4,3.4,7.7*3D

$GPGSV,2,1,08,20,74,300,26,13,70,062,,25,51,089,27,01,45,058,31*7D

$GPGSV,2,2,08,11,39,194,26,27,17,180,,07,16,281,,10,15,289,*74

$GPRMC,073642.262,A,5001.2641,N,03613.0585,E,0.28,351.41,050706,,,A*6A

$GPGGA,073643.262,5001.2643,N,03613.0582,E,1,04,3.4,131.3,M,,,,0000*00

$GPGSA,A,3,11,20,01,25,,,,,,,,,8.4,3.4,7.7*3D

$GPGSV,2,1,08,20,74,300,26,13,70,062,,25,51,089,28,01,45,058,31*72

$GPGSV,2,2,08,11,39,194,26,27,17,180,,07,16,281,,10,15,289,*74

$GPRMC,073643.262,A,5001.2643,N,03613.0582,E,0.17,298.96,050706,,,A*6C

$GPGGA,073644.262,5001.2645,N,03613.0580,E,1,04,3.4,130.8,M,,,,0000*09

$GPGSA,A,3,11,20,01,25,,,,,,,,,8.4,3.4,7.7*3D

$GPGSV,2,1,08,20,74,300,26,13,70,062,,25,51,089,28,01,45,058,30*73

$GPGSV,2,2,08,11,39,194,27,27,17,180,,07,16,281,,10,15,289,*75

$GPRMC,073644.262,A,5001.2645,N,03613.0580,E,0.26,26.24,050706,,,A*53

$GPGGA,073645.262,5001.2647,N,03613.0580,E,1,04,3.4,130.8,M,,,,0000*0A

$GPGSA,A,3,11,20,01,25,,,,,,,,,8.4,3.4,7.7*3D

$GPGSV,2,1,08,20,74,300,26,13,70,062,,25,51,089,29,01,45,058,30*72

$GPGSV,2,2,08,11,39,194,27,27,17,180,,07,16,281,,10,15,289,*75

$GPRMC,073645.262,A,5001.2647,N,03613.0580,E,0.27,37.35,050706,,,A*51

$GPGGA,073646.262,5001.2647,N,03613.0581,E,1,04,3.4,130.8,M,,,,0000*08

$GPGSA,A,3,11,20,01,25,,,,,,,,,8.4,3.4,7.7*3D

$GPGSV,2,1,08,20,74,300,27,13,70,062,,25,51,089,29,01,45,058,31*72

$GPGSV,2,2,08,11,39,194,26,27,17,180,,07,16,281,,10,15,289,*74

$GPRMC,073646.262,A,5001.2647,N,03613.0581,E,0.08,227.06,050706,,,A*6D

$GPGGA,073647.262,5001.2647,N,03613.0581,E,1,04,3.4,130.9,M,,,,0000*08

$GPGSA,A,3,11,20,01,25,,,,,,,,,8.4,3.4,7.7*3D

$GPGSV,2,1,08,20,74,300,27,13,70,062,,25,51,089,28,01,45,058,30*72

$GPGSV,2,2,08,11,39,194,26,27,17,180,,07,16,281,,10,15,289,*74

$GPRMC,073647.262,A,5001.2647,N,03613.0581,E,0.07,267.38,050706,,,A*6A

$GPGGA,073648.262,5001.2648,N,03613.0579,E,1,04,3.4,130.6,M,,,,0000*00

$GPGSA,A,3,11,20,01,25,,,,,,,,,8.4,3.4,7.7*3D

$GPGSV,2,1,08,20,74,300,26,13,70,062,,25,51,089,28,01,45,058,31*72

$GPGSV,2,2,08,11,39,194,26,27,17,180,,07,16,281,,10,15,289,*74

$GPRMC,073648.262,A,5001.2648,N,03613.0579,E,0.12,312.43,050706,,,A*66

$GPGGA,073649.262,5001.2649,N,03613.0578,E,1,04,3.4,130.6,M,,,,0000*01

$GPGSA,A,3,11,20,01,25,,,,,,,,,8.4,3.4,7.7*3D

$GPGSV,2,1,08,20,74,300,27,13,70,062,,25,51,089,28,01,45,058,30*72

$GPGSV,2,2,08,11,39,194,26,27,17,180,,07,16,281,,10,15,289,*74

$GPRMC,073649.262,A,5001.2649,N,03613.0578,E,0.18,1.26,050706,,,A*6F

$GPGGA,073650.262,5001.2650,N,03613.0577,E,1,04,3.4,130.2,M,,,,0000*0A

$GPGSA,A,3,11,20,01,25,,,,,,,,,8.4,3.4,7.7*3D

$GPGSV,2,1,08,20,74,300,26,13,70,062,,25,51,089,29,01,45,058,31*73

$GPGSV,2,2,08,11,39,194,25,27,17,180,,07,16,281,,10,15,289,*77

$GPRMC,073650.262,A,5001.2650,N,03613.0577,E,0.12,305.99,050706,,,A*69

$GPGGA,073651.262,5001.2650,N,03613.0577,E,1,04,3.4,130.1,M,,,,0000*08

$GPGSA,A,3,11,20,01,25,,,,,,,,,8.4,3.4,7.7*3D

$GPGSV,2,1,08,20,74,300,27,13,70,062,,25,51,089,29,01,45,058,30*73

$GPGSV,2,2,08,11,39,194,25,27,17,180,,07,16,281,,10,15,289,*77

$GPRMC,073651.262,A,5001.2650,N,03613.0577,E,0.25,36.42,050706,,,A*59

$GPGGA,073652.262,5001.2651,N,03613.0577,E,1,04,3.4,130.6,M,,,,0000*0D

$GPGSA,A,3,11,20,01,25,,,,,,,,,8.4,3.4,7.7*3D

$GPGSV,2,1,08,20,74,300,26,13,70,062,,25,51,089,27,01,45,058,30*7C

$GPGSV,2,2,08,11,39,194,25,27,17,180,,07,16,281,,10,15,289,*77

$GPRMC,073652.262,A,5001.2651,N,03613.0577,E,0.25,22.60,050706,,,A*5E

$GPGGA,073653.262,5001.2651,N,03613.0578,E,1,04,3.4,130.8,M,,,,0000*0D

$GPGSA,A,3,11,20,01,25,,,,,,,,,8.4,3.4,7.7*3D

$GPGSV,2,1,08,20,74,300,26,13,70,062,,25,51,089,27,01,45,058,31*7D

$GPGSV,2,2,08,11,39,194,25,27,17,180,,07,16,281,,10,15,289,*77

$GPRMC,073653.262,A,5001.2651,N,03613.0578,E,0.14,68.39,050706,,,A*50

$GPGGA,073654.261,5001.2651,N,03613.0578,E,1,04,3.4,130.9,M,,,,0000*08

$GPGSA,A,3,11,20,01,25,,,,,,,,,8.4,3.4,7.7*3D

$GPGSV,2,1,08,20,74,300,27,13,70,062,,25,51,089,28,01,45,058,30*72

$GPGSV,2,2,08,11,39,194,26,27,17,180,,07,16,281,,10,15,289,*74

$GPRMC,073654.261,A,5001.2651,N,03613.0578,E,0.11,310.49,050706,,,A*6A

$GPGGA,073655.261,5001.2651,N,03613.0580,E,1,04,3.4,130.7,M,,,,0000*00

$GPGSA,A,3,11,20,01,25,,,,,,,,,8.4,3.4,7.7*3D

$GPGSV,2,1,08,20,74,300,27,13,70,062,,25,51,089,28,01,45,058,30*72

$GPGSV,2,2,08,11,39,194,27,27,17,180,,07,16,281,,10,15,289,*75

$GPRMC,073655.261,A,5001.2651,N,03613.0580,E,0.22,33.83,050706,,,A*58

$GPGGA,073656.261,5001.2651,N,03613.0581,E,1,04,3.4,131.3,M,,,,0000*07

$GPGSA,A,3,11,20,01,25,,,,,,,,,8.4,3.4,7.7*3D

$GPGSV,2,1,08,20,74,300,26,13,70,062,,25,51,089,28,01,45,058,31*72

$GPGSV,2,2,08,11,39,194,26,27,17,180,,07,16,281,,10,15,289,*74

$GPRMC,073656.261,A,5001.2651,N,03613.0581,E,0.18,34.86,050706,,,A*51

$GPGGA,073657.261,5001.2652,N,03613.0580,E,1,04,3.4,131.7,M,,,,0000*00

$GPGSA,A,3,11,20,01,25,,,,,,,,,8.4,3.4,7.7*3D

$GPGSV,2,1,08,20,74,300,26,13,70,062,,25,51,089,27,01,45,058,31*7D

$GPGSV,2,2,08,11,39,194,25,27,17,180,,07,16,281,,10,15,289,*77

$GPRMC,073657.261,A,5001.2652,N,03613.0580,E,0.28,271.86,050706,,,A*62

$GPGGA,073658.261,5001.2652,N,03613.0579,E,1,04,3.4,131.7,M,,,,0000*09

$GPGSA,A,3,11,20,01,25,,,,,,,,,8.4,3.4,7.7*3D

$GPGSV,2,1,08,20,74,300,26,13,70,062,,25,51,089,27,01,45,058,30*7C

$GPGSV,2,2,08,11,39,194,26,27,17,180,,07,16,281,,10,15,289,*74

$GPRMC,073658.261,A,5001.2652,N,03613.0579,E,0.28,271.99,050706,,,A*65

$GPGGA,073659.261,5001.2652,N,03613.0578,E,1,04,3.4,131.8,M,,,,0000*06

$GPGSA,A,3,11,20,01,25,,,,,,,,,8.4,3.4,7.7*3D

$GPGSV,2,1,08,20,74,300,26,13,70,062,,25,51,089,28,01,45,058,30*73

$GPGSV,2,2,08,11,39,194,26,27,17,180,,07,16,281,,10,15,289,*74

$GPRMC,073659.261,A,5001.2652,N,03613.0578,E,0.28,272.23,050706,,,A*67

$GPGGA,073700.261,5001.2653,N,03613.0575,E,1,04,3.4,132.1,M,,,,0000*0D

$GPGSA,A,3,11,20,01,25,,,,,,,,,8.4,3.4,7.7*3D

$GPGSV,2,1,08,20,74,300,25,13,70,062,,25,51,089,29,01,45,058,30*71

$GPGSV,2,2,08,11,39,194,25,27,17,180,,07,16,281,,10,15,289,*77

$GPRMC,073700.261,A,5001.2653,N,03613.0575,E,0.13,303.10,050706,,,A*69

$GPGGA,073701.261,5001.2652,N,03613.0576,E,1,04,3.4,132.6,M,,,,0000*09

$GPGSA,A,3,11,20,01,25,,,,,,,,,8.4,3.4,7.6*3C

$GPGSV,2,1,08,20,74,300,26,13,70,062,,25,51,089,29,01,45,058,30*72

$GPGSV,2,2,08,11,39,194,26,27,17,180,,07,16,281,,10,15,289,*74

$GPRMC,073701.261,A,5001.2652,N,03613.0576,E,0.12,340.92,050706,,,A*66

$GPGGA,073702.261,5001.2652,N,03613.0578,E,1,04,3.4,133.2,M,,,,0000*01

$GPGSA,A,3,11,20,01,25,,,,,,,,,8.4,3.4,7.6*3C

$GPGSV,2,1,08,20,74,300,26,13,70,062,,25,51,089,28,01,45,058,31*72

$GPGSV,2,2,08,11,39,194,27,27,17,180,,07,16,281,,10,15,289,*75

$GPRMC,073702.261,A,5001.2652,N,03613.0578,E,0.48,51.57,050706,,,A*5E

$GPGGA,073703.261,5001.2652,N,03613.0582,E,1,04,3.4,132.8,M,,,,0000*0E

$GPGSA,A,3,11,20,01,25,,,,,,,,,8.4,3.4,7.6*3C

$GPGSV,2,1,08,20,74,300,26,13,70,062,,25,51,089,28,01,45,058,30*73

$GPGSV,2,2,08,11,39,194,27,27,17,180,,07,16,281,,10,15,289,*75

$GPRMC,073703.261,A,5001.2652,N,03613.0582,E,0.53,92.40,050706,,,A*59

$GPGGA,073704.261,5001.2654,N,03613.0582,E,1,04,3.4,132.5,M,,,,0000*02

$GPGSA,A,3,11,20,01,25,,,,,,,,,8.4,3.4,7.6*3C

$GPGSV,2,1,08,20,74,300,26,13,70,062,,25,51,089,28,01,45,058,31*72

$GPGSV,2,2,08,11,39,194,26,27,17,180,,07,16,281,,10,15,289,*74

$GPRMC,073704.261,A,5001.2654,N,03613.0582,E,0.47,103.76,050706,,,A*61

$GPGGA,073705.261,5001.2655,N,03613.0583,E,1,04,3.4,133.1,M,,,,0000*06

$GPGSA,A,3,11,20,01,25,,,,,,,,,8.3,3.4,7.6*3B

$GPGSV,2,1,08,20,74,300,26,13,70,062,,25,51,089,28,01,45,058,30*73

$GPGSV,2,2,08,11,39,194,28,27,17,180,,07,16,281,,10,15,289,*7A

$GPRMC,073705.261,A,5001.2655,N,03613.0583,E,0.72,74.71,050706,,,A*50

$GPGGA,073706.261,5001.2656,N,03613.0586,E,1,04,3.4,133.2,M,,,,0000*00

$GPGSA,A,3,11,20,01,25,,,,,,,,,8.3,3.4,7.6*3B

$GPGSV,2,1,08,20,74,300,26,13,70,062,,25,51,089,28,01,45,058,30*73

$GPGSV,2,2,08,11,39,194,27,27,17,180,,07,16,281,,10,15,289,*75

$GPRMC,073706.261,A,5001.2656,N,03613.0586,E,0.65,96.09,050706,,,A*50

$GPGGA,073707.261,5001.2656,N,03613.0588,E,1,04,3.4,133.0,M,,,,0000*0D

$GPGSA,A,3,11,20,01,25,,,,,,,,,8.3,3.4,7.6*3B

$GPGSV,2,1,08,20,74,300,26,13,70,062,,25,51,089,28,01,45,058,30*73

$GPGSV,2,2,08,11,39,194,27,27,17,180,,07,16,281,,10,15,289,*75

$GPRMC,073707.261,A,5001.2656,N,03613.0588,E,0.71,84.68,050706,,,A*5E

$GPGGA,073708.261,5001.2658,N,03613.0586,E,1,04,3.4,134.1,M,,,,0000*04

$GPGSA,A,3,11,20,01,25,,,,,,,,,8.3,3.4,7.6*3B

$GPGSV,2,1,08,20,74,300,26,13,70,062,,25,51,089,28,01,45,058,31*72

$GPGSV,2,2,08,11,39,194,27,27,17,180,,07,16,281,,10,15,289,*75

$GPRMC,073708.261,A,5001.2658,N,03613.0586,E,0.67,83.84,050706,,,A*53

$GPGGA,073709.261,5001.2658,N,03613.0587,E,1,04,3.4,134.5,M,,,,0000*00

$GPGSA,A,3,11,20,01,25,,,,,,,,,8.3,3.4,7.6*3B

$GPGSV,2,1,08,20,74,300,26,13,70,062,,25,51,089,29,01,45,058,29*7A

$GPGSV,2,2,08,11,39,194,28,27,17,180,,07,16,281,,10,15,289,*7A

$GPRMC,073709.261,A,5001.2658,N,03613.0587,E,0.73,90.89,050706,,,A*59

$GPGGA,073710.260,5001.2658,N,03613.0592,E,1,04,3.4,134.9,M,,,,0000*01

$GPGSA,A,3,11,20,01,25,,,,,,,,,8.3,3.4,7.6*3B

$GPGSV,2,1,08,20,74,300,26,13,70,062,,25,51,089,29,01,45,058,29*7A

$GPGSV,2,2,08,11,39,194,28,27,17,180,,07,16,281,,10,15,289,*7A

$GPRMC,073710.260,A,5001.2658,N,03613.0592,E,0.77,89.98,050706,,,A*58

$GPGGA,073711.260,5001.2658,N,03613.0596,E,1,04,3.4,135.2,M,,,,0000*0E

$GPGSA,A,3,11,20,01,25,,,,,,,,,8.3,3.4,7.6*3B

$GPGSV,3,1,10,20,74,300,27,13,70,062,,25,51,089,29,01,45,058,29*73

$GPGSV,3,2,10,11,38,194,28,27,17,180,,07,16,281,,10,16,289,*70

$GPGSV,3,3,10,04,08,320,,30,05,091,*7B

$GPRMC,073711.260,A,5001.2658,N,03613.0596,E,0.70,103.44,050706,,,A*68

$GPGGA,073712.260,5001.2658,N,03613.0597,E,1,04,3.4,134.6,M,,,,0000*09

$GPGSA,A,3,11,20,01,25,,,,,,,,,8.3,3.4,7.6*3B

$GPGSV,3,1,10,20,74,300,26,13,70,062,,25,51,089,29,01,45,058,30*7A

$GPGSV,3,2,10,11,38,194,28,27,17,180,,07,16,281,,10,16,289,*70

$GPGSV,3,3,10,04,08,320,,30,05,091,*7B

$GPRMC,073712.260,A,5001.2658,N,03613.0597,E,0.69,85.29,050706,,,A*56

$GPGGA,073713.260,5001.2658,N,03613.0597,E,1,04,3.4,134.1,M,,,,0000*0F

$GPGSA,A,3,11,20,01,25,,,,,,,,,8.3,3.4,7.6*3B

$GPGSV,3,1,10,20,74,300,25,13,70,062,,25,51,089,29,01,45,058,30*79

$GPGSV,3,2,10,11,38,194,27,27,17,180,,07,16,281,,10,16,289,*7F

$GPGSV,3,3,10,04,08,320,,30,05,091,*7B

$GPRMC,073713.260,A,5001.2658,N,03613.0597,E,0.57,105.77,050706,,,A*68

$GPGGA,073714.260,5001.2658,N,03613.0598,E,1,04,3.4,134.0,M,,,,0000*06

$GPGSA,A,3,11,20,01,25,,,,,,,,,8.3,3.4,7.6*3B

$GPGSV,3,1,10,20,74,300,26,13,70,062,,25,51,089,29,01,45,058,30*7A

$GPGSV,3,2,10,11,38,194,28,27,17,180,,07,16,281,,10,16,289,*70

$GPGSV,3,3,10,04,08,320,,30,05,091,*7B

$GPRMC,073714.260,A,5001.2658,N,03613.0598,E,0.31,97.63,050706,,,A*5F

$GPGGA,073715.260,5001.2658,N,03613.0599,E,1,04,3.4,134.2,M,,,,0000*04

$GPGSA,A,3,11,20,01,25,,,,,,,,,8.3,3.4,7.6*3B

$GPGSV,3,1,10,20,74,300,26,13,70,062,,25,51,089,27,01,45,058,31*75

$GPGSV,3,2,10,11,38,194,26,27,17,180,,07,16,281,,10,16,289,*7E

$GPGSV,3,3,10,04,08,320,,30,05,091,*7B

$GPRMC,073715.260,A,5001.2658,N,03613.0599,E,0.15,33.47,050706,,,A*51

$GPGGA,073716.260,5001.2658,N,03613.0599,E,1,04,3.4,134.4,M,,,,0000*01

$GPGSA,A,3,11,20,01,25,,,,,,,,,8.3,3.4,7.6*3B

$GPGSV,3,1,10,20,74,300,25,13,70,062,,25,51,089,29,01,45,058,31*78

$GPGSV,3,2,10,11,38,194,26,27,17,180,,07,16,281,,10,16,289,*7E

$GPGSV,3,3,10,04,08,320,,30,05,091,*7B

$GPRMC,073716.260,A,5001.2658,N,03613.0599,E,0.19,278.53,050706,,,A*66

$GPGGA,073717.260,5001.2659,N,03613.0597,E,1,04,3.4,134.4,M,,,,0000*0F

$GPGSA,A,3,11,20,01,25,,,,,,,,,8.3,3.4,7.6*3B

$GPGSV,3,1,09,20,74,300,26,13,70,062,,25,51,088,29,01,45,058,31*72

$GPGSV,3,2,09,11,38,194,26,07,16,281,,10,16,289,,04,08,320,*71

$GPGSV,3,3,09,30,05,091,*4E

$GPRMC,073717.260,A,5001.2659,N,03613.0597,E,0.26,299.35,050706,,,A*6B

$GPGGA,073718.260,5001.2661,N,03613.0595,E,1,04,3.4,133.9,M,,,,0000*03

$GPGSA,A,3,11,20,01,25,,,,,,,,,8.3,3.4,7.6*3B

$GPGSV,3,1,09,20,74,300,26,13,70,062,,25,51,088,29,01,45,058,31*72

$GPGSV,3,2,09,11,38,194,26,07,16,281,,10,16,289,,04,08,320,*71

$GPGSV,3,3,09,30,05,091,*4E

$GPRMC,073718.260,A,5001.2661,N,03613.0595,E,0.32,318.03,050706,,,A*65

$GPGGA,073719.260,5001.2662,N,03613.0591,E,1,04,3.4,133.3,M,,,,0000*0F

$GPGSA,A,3,11,20,01,25,,,,,,,,,8.3,3.4,7.6*3B

$GPGSV,3,1,09,20,74,300,26,13,70,062,,25,51,088,29,01,45,058,31*72

$GPGSV,3,2,09,11,38,194,26,07,16,281,,10,16,289,,04,08,320,*71

$GPGSV,3,3,09,30,05,091,*4E

$GPRMC,073719.260,A,5001.2662,N,03613.0591,E,0.53,282.23,050706,,,A*64

$GPGGA,073720.260,5001.2663,N,03613.0591,E,1,04,3.4,132.3,M,,,,0000*05

$GPGSA,A,3,11,20,01,25,,,,,,,,,8.3,3.4,7.6*3B

$GPGSV,3,1,09,20,74,300,26,13,70,062,,25,51,088,30,01,45,058,30*7B

$GPGSV,3,2,09,11,38,194,27,07,16,281,,10,16,289,,04,08,320,*70

$GPGSV,3,3,09,30,05,091,*4E

$GPRMC,073720.260,A,5001.2663,N,03613.0591,E,0.28,10.68,050706,,,A*55

$GPGGA,073721.260,5001.2663,N,03613.0591,E,1,04,3.4,132.4,M,,,,0000*03

$GPGSA,A,3,11,20,01,25,,,,,,,,,8.3,3.4,7.6*3B

$GPGSV,3,1,09,20,74,300,26,13,70,062,,25,51,088,30,01,45,058,30*7B

$GPGSV,3,2,09,11,38,194,26,07,16,281,,10,16,289,,04,08,320,*71

$GPGSV,3,3,09,30,05,091,*4E

$GPRMC,073721.260,A,5001.2663,N,03613.0591,E,0.28,10.27,050706,,,A*5F

$GPGGA,073722.260,5001.2664,N,03613.0591,E,1,04,3.4,132.5,M,,,,0000*06

$GPGSA,A,3,11,20,01,25,,,,,,,,,8.3,3.4,7.6*3B

$GPGSV,3,1,09,20,74,300,25,13,70,062,,25,51,088,30,01,45,058,30*78

$GPGSV,3,2,09,11,38,194,26,07,16,281,,10,16,289,,04,08,320,*71

$GPGSV,3,3,09,30,05,091,*4E

$GPRMC,073722.260,A,5001.2664,N,03613.0591,E,0.26,3.98,050706,,,A*63

$GPGGA,073723.260,5001.2664,N,03613.0591,E,1,04,3.4,132.6,M,,,,0000*04

$GPGSA,A,3,11,20,01,25,,,,,,,,,8.3,3.4,7.6*3B

$GPGSV,3,1,09,20,74,300,26,13,70,062,,25,51,088,28,01,45,058,31*73

$GPGSV,3,2,09,11,38,194,27,07,16,281,,10,16,289,,04,08,320,*70

$GPGSV,3,3,09,30,05,091,*4E

$GPRMC,073723.260,A,5001.2664,N,03613.0591,E,0.28,1.15,050706,,,A*6B

$GPGGA,073724.260,5001.2665,N,03613.0588,E,1,04,3.4,131.7,M,,,,0000*08

$GPGSA,A,3,11,20,01,25,,,,,,,,,8.3,3.4,7.6*3B

$GPGSV,3,1,09,20,74,300,25,13,70,062,,25,51,088,29,01,45,058,30*70

$GPGSV,3,2,09,11,38,194,26,07,16,281,,10,16,289,,04,08,320,*71

$GPGSV,3,3,09,30,05,091,*4E

$GPRMC,073724.260,A,5001.2665,N,03613.0588,E,0.29,335.07,050706,,,A*63

$GPGGA,073725.260,5001.2667,N,03613.0586,E,1,04,3.4,130.9,M,,,,0000*0A

$GPGSA,A,3,11,20,01,25,,,,,,,,,8.3,3.4,7.6*3B

$GPGSV,3,1,09,20,74,300,25,13,70,062,,25,51,088,29,01,45,058,30*70

$GPGSV,3,2,09,11,38,194,25,07,16,281,,10,16,289,,04,08,320,*72

$GPGSV,3,3,09,30,05,091,*4E

$GPRMC,073725.260,A,5001.2667,N,03613.0586,E,0.26,296.79,050706,,,A*60

$GPGGA,073726.260,5001.2667,N,03613.0588,E,1,04,3.4,129.6,M,,,,0000*00

$GPGSA,A,3,11,20,01,25,,,,,,,,,8.3,3.4,7.6*3B

$GPGSV,3,1,09,20,74,300,26,13,70,062,,25,51,088,29,01,45,058,31*72

$GPGSV,3,2,09,11,38,194,25,07,16,281,,10,16,289,,04,08,320,*72

$GPGSV,3,3,09,30,05,091,*4E

$GPRMC,073726.260,A,5001.2667,N,03613.0588,E,0.26,33.91,050706,,,A*56

$GPGGA,073727.259,5001.2669,N,03613.0587,E,1,04,3.4,128.9,M,,,,0000*04

$GPGSA,A,3,11,20,01,25,,,,,,,,,8.3,3.4,7.5*38

$GPGSV,3,1,09,20,74,300,25,13,70,062,,25,51,088,29,01,45,058,31*71

$GPGSV,3,2,09,11,38,194,27,07,16,281,,10,16,289,,04,08,320,*70

$GPGSV,3,3,09,30,05,091,*4E

$GPRMC,073727.259,A,5001.2669,N,03613.0587,E,0.19,24.82,050706,,,A*54

$GPGGA,073728.259,5001.2670,N,03613.0585,E,1,04,3.4,128.5,M,,,,0000*0D

$GPGSA,A,3,11,20,01,25,,,,,,,,,8.3,3.4,7.5*38

$GPGSV,3,1,09,20,74,300,25,13,70,062,,25,51,088,29,01,45,058,30*70

$GPGSV,3,2,09,11,38,194,26,07,16,281,,10,16,289,,04,08,320,*71

$GPGSV,3,3,09,30,05,091,*4E

$GPRMC,073728.259,A,5001.2670,N,03613.0585,E,0.30,310.49,050706,,,A*69

$GPGGA,073729.259,5001.2672,N,03613.0584,E,1,04,3.4,128.1,M,,,,0000*0B

$GPGSA,A,3,11,20,01,25,,,,,,,,,8.3,3.4,7.5*38

$GPGSV,3,1,09,20,74,300,25,13,70,062,,25,51,088,29,01,45,058,31*71

$GPGSV,3,2,09,11,38,194,26,07,16,281,,10,16,289,,04,08,320,*71

$GPGSV,3,3,09,30,05,091,*4E

$GPRMC,073729.259,A,5001.2672,N,03613.0584,E,0.39,5.36,050706,,,A*6D

$GPGGA,073730.259,5001.2673,N,03613.0583,E,1,04,3.4,128.0,M,,,,0000*04

$GPGSA,A,3,11,20,01,25,,,,,,,,,8.3,3.4,7.5*38

$GPGSV,3,1,09,20,74,300,26,13,70,062,,25,51,088,29,01,45,058,31*72

$GPGSV,3,2,09,11,38,194,26,07,16,281,,10,16,289,,04,08,320,*71

$GPGSV,3,3,09,30,05,091,*4E

$GPRMC,073730.259,A,5001.2673,N,03613.0583,E,0.45,333.70,050706,,,A*6C

$GPGGA,073731.259,5001.2675,N,03613.0583,E,1,04,3.4,127.8,M,,,,0000*04

$GPGSA,A,3,11,20,01,25,,,,,,,,,8.3,3.4,7.5*38

$GPGSV,3,1,09,20,74,300,26,13,70,062,,25,51,088,30,01,45,058,31*7A

$GPGSV,3,2,09,11,38,194,26,07,16,281,,10,16,289,,04,08,320,*71

$GPGSV,3,3,09,30,05,091,*4E

$GPRMC,073731.259,A,5001.2675,N,03613.0583,E,0.48,6.63,050706,,,A*61

$GPGGA,073732.259,5001.2678,N,03613.0582,E,1,04,3.4,127.6,M,,,,0000*05

$GPGSA,A,3,11,20,01,25,,,,,,,,,8.3,3.4,7.5*38

$GPGSV,3,1,09,20,74,300,25,13,70,062,,25,51,088,30,01,45,058,31*79

$GPGSV,3,2,09,11,38,194,27,07,16,281,,10,16,289,,04,08,320,*70

$GPGSV,3,3,09,30,05,091,*4E

$GPRMC,073732.259,A,5001.2678,N,03613.0582,E,0.23,339.39,050706,,,A*63

$GPGGA,073733.259,5001.2680,N,03613.0581,E,1,04,3.4,128.2,M,,,,0000*0B

$GPGSA,A,3,11,20,01,25,,,,,,,,,8.3,3.4,7.5*38

$GPGSV,3,1,09,20,74,300,26,13,70,062,,25,51,088,29,01,45,058,30*73

$GPGSV,3,2,09,11,38,194,26,07,16,281,,10,16,289,,04,08,320,*71

$GPGSV,3,3,09,30,05,091,*4E

$GPRMC,073733.259,A,5001.2680,N,03613.0581,E,0.44,345.57,050706,,,A*64

$GPGGA,073734.259,5001.2682,N,03613.0579,E,1,04,3.4,127.9,M,,,,0000*0D

$GPGSA,A,3,11,20,01,25,,,,,,,,,8.3,3.4,7.5*38

$GPGSV,3,1,09,20,74,300,25,13,70,062,,25,51,088,29,01,45,058,31*71

$GPGSV,3,2,09,11,38,194,26,07,16,281,,10,16,289,,04,08,320,*71

$GPGSV,3,3,09,30,05,091,*4E

$GPRMC,073734.259,A,5001.2682,N,03613.0579,E,0.38,346.18,050706,,,A*65

$GPGGA,073735.259,5001.2684,N,03613.0579,E,1,04,3.4,127.6,M,,,,0000*05

$GPGSA,A,3,11,20,01,25,,,,,,,,,8.2,3.4,7.5*39

$GPGSV,3,1,09,20,74,300,26,13,70,062,,25,51,088,29,01,45,058,31*72

$GPGSV,3,2,09,11,38,194,26,07,16,281,,10,16,289,,04,08,320,*71

$GPGSV,3,3,09,30,05,091,*4E

$GPRMC,073735.259,A,5001.2684,N,03613.0579,E,0.25,349.27,050706,,,A*6D

$GPGGA,073736.259,5001.2685,N,03613.0580,E,1,04,3.4,127.2,M,,,,0000*05

$GPGSA,A,3,11,20,01,25,,,,,,,,,8.2,3.4,7.5*39

$GPGSV,3,1,09,20,74,300,26,13,70,062,,25,51,088,29,01,45,058,31*72

$GPGSV,3,2,09,11,38,194,27,07,16,281,,10,16,289,,04,08,320,*70

$GPGSV,3,3,09,30,05,091,*4E

$GPRMC,073736.259,A,5001.2685,N,03613.0580,E,0.38,26.14,050706,,,A*5F

$GPGGA,073737.259,5001.2686,N,03613.0580,E,1,04,3.4,127.2,M,,,,0000*07

$GPGSA,A,3,11,20,01,25,,,,,,,,,8.2,3.4,7.5*39

$GPGSV,3,1,09,20,74,300,25,13,70,062,,25,51,088,28,01,45,058,31*70

$GPGSV,3,2,09,11,38,194,25,07,16,281,,10,16,289,,04,08,320,*72

$GPGSV,3,3,09,30,05,091,*4E

$GPRMC,073737.259,A,5001.2686,N,03613.0580,E,0.24,337.27,050706,,,A*63

$GPGGA,073738.259,5001.2686,N,03613.0579,E,1,04,3.4,127.3,M,,,,0000*0F

$GPGSA,A,3,11,20,01,25,,,,,,,,,8.2,3.4,7.5*39

$GPGSV,3,1,09,20,74,300,25,13,70,062,,25,51,088,29,01,45,058,31*71

$GPGSV,3,2,09,11,38,194,26,07,16,281,,10,16,289,,04,08,320,*71

$GPGSV,3,3,09,30,05,091,*4E

$GPRMC,073738.259,A,5001.2686,N,03613.0579,E,0.34,326.78,050706,,,A*61

$GPGGA,073739.259,5001.2687,N,03613.0579,E,1,04,3.4,127.8,M,,,,0000*04

$GPGSA,A,3,11,20,01,25,,,,,,,,,8.2,3.4,7.5*39

$GPGSV,3,1,09,20,74,300,26,13,70,062,,25,51,088,29,01,45,058,30*73

$GPGSV,3,2,09,11,38,194,26,07,16,281,,10,16,289,,04,08,320,*71

$GPGSV,3,3,09,30,05,091,*4E

$GPRMC,073739.259,A,5001.2687,N,03613.0579,E,0.44,30.66,050706,,,A*5D

$GPGGA,073740.259,5001.2689,N,03613.0579,E,1,04,3.4,127.7,M,,,,0000*0B

$GPGSA,A,3,11,20,01,25,,,,,,,,,8.2,3.4,7.5*39

$GPGSV,3,1,09,20,74,300,25,13,70,062,,25,51,088,29,01,45,058,30*70

$GPGSV,3,2,09,11,38,194,26,07,16,281,,10,16,289,,04,08,320,*71

$GPGSV,3,3,09,30,05,091,*4E

$GPRMC,073740.259,A,5001.2689,N,03613.0579,E,0.39,35.03,050706,,,A*51

$GPGGA,073741.259,5001.2689,N,03613.0579,E,1,04,3.4,128.0,M,,,,0000*02

$GPGSA,A,3,11,20,01,25,,,,,,,,,8.2,3.4,7.5*39

$GPGSV,3,1,09,20,74,300,26,13,70,062,,25,51,088,29,01,45,058,31*72

$GPGSV,3,2,09,11,38,194,25,07,16,281,,10,16,289,,04,08,320,*72

$GPGSV,3,3,09,30,05,091,*4E

$GPRMC,073741.259,A,5001.2689,N,03613.0579,E,0.34,7.67,050706,,,A*6E

$GPGGA,073742.259,5001.2690,N,03613.0579,E,1,04,3.4,128.1,M,,,,0000*08

$GPGSA,A,3,11,20,01,25,,,,,,,,,8.2,3.4,7.5*39

$GPGSV,3,1,09,20,74,300,25,13,70,062,,25,51,088,28,01,45,058,30*71

$GPGSV,3,2,09,11,38,194,27,07,16,281,,10,16,289,,04,08,320,*70

$GPGSV,3,3,09,30,05,091,*4E

$GPRMC,073742.259,A,5001.2690,N,03613.0579,E,0.32,5.14,050706,,,A*65

$GPGGA,073743.258,5001.2691,N,03613.0579,E,1,04,3.4,128.0,M,,,,0000*08

$GPGSA,A,3,11,20,01,25,,,,,,,,,8.2,3.4,7.5*39

$GPGSV,3,1,09,20,74,300,25,13,70,062,,25,51,088,29,01,45,058,31*71

$GPGSV,3,2,09,11,38,194,26,07,16,281,,10,16,289,,04,08,320,*71

$GPGSV,3,3,09,30,05,091,*4E

$GPRMC,073743.258,A,5001.2691,N,03613.0579,E,0.29,5.42,050706,,,A*6D

$GPGGA,073744.258,5001.2691,N,03613.0580,E,1,04,3.4,128.2,M,,,,0000*0B

$GPGSA,A,3,11,20,01,25,,,,,,,,,8.2,3.4,7.5*39

$GPGSV,3,1,09,20,74,300,26,13,70,062,,25,51,088,29,01,45,058,31*72

$GPGSV,3,2,09,11,38,194,26,07,16,281,,10,16,289,,04,08,320,*71

$GPGSV,3,3,09,30,05,091,*4E

$GPRMC,073744.258,A,5001.2691,N,03613.0580,E,0.34,0.38,050706,,,A*68

$GPGGA,073745.258,5001.2691,N,03613.0577,E,1,04,3.4,128.4,M,,,,0000*04

$GPGSA,A,3,11,20,01,25,,,,,,,,,8.2,3.4,7.5*39

$GPGSV,3,1,09,20,74,300,27,13,70,062,,25,51,088,29,01,45,058,31*73

$GPGSV,3,2,09,11,38,194,27,07,16,281,,10,16,289,,04,08,320,*70

$GPGSV,3,3,09,30,05,091,*4E

$GPRMC,073745.258,A,5001.2691,N,03613.0577,E,0.50,291.45,050706,,,A*63

$GPGGA,073746.258,5001.2692,N,03613.0575,E,1,04,3.4,128.3,M,,,,0000*01

$GPGSA,A,3,11,20,01,25,,,,,,,,,8.2,3.4,7.5*39

$GPGSV,3,1,09,20,74,300,26,13,70,062,,25,51,088,29,01,45,058,31*72

$GPGSV,3,2,09,11,38,194,27,07,16,281,,10,16,289,,04,08,320,*70

$GPGSV,3,3,09,30,05,091,*4E

$GPRMC,073746.258,A,5001.2692,N,03613.0575,E,0.53,295.84,050706,,,A*6B

$GPGGA,073747.258,5001.2696,N,03613.0575,E,1,04,3.4,130.2,M,,,,0000*0C

$GPGSA,A,3,11,20,01,25,,,,,,,,,8.2,3.4,7.5*39

$GPGSV,3,1,09,20,74,300,26,13,70,062,,25,51,088,29,01,45,058,31*72

$GPGSV,3,2,09,11,38,194,27,10,16,289,,07,16,281,,04,09,320,*71

$GPGSV,3,3,09,30,05,091,*4E

$GPRMC,073747.258,A,5001.2696,N,03613.0575,E,0.42,303.64,050706,,,A*6E

$GPGGA,073748.258,5001.2696,N,03613.0572,E,1,04,3.4,129.6,M,,,,0000*08

$GPGSA,A,3,11,20,01,25,,,,,,,,,8.2,3.4,7.5*39

$GPGSV,3,1,09,20,74,300,26,13,70,062,,25,51,088,29,01,45,058,30*73

$GPGSV,3,2,09,11,38,194,27,10,16,289,,07,16,281,,04,09,320,*71

$GPGSV,3,3,09,30,05,091,*4E

$GPRMC,073748.258,A,5001.2696,N,03613.0572,E,0.35,330.23,050706,,,A*65

$GPGGA,073749.258,5001.2697,N,03613.0567,E,1,04,3.4,128.4,M,,,,0000*0F

$GPGSA,A,3,11,20,01,25,,,,,,,,,8.2,3.4,7.5*39

$GPGSV,3,1,09,20,74,300,26,13,70,062,,25,51,088,29,01,45,058,31*72

$GPGSV,3,2,09,11,38,194,27,10,16,289,,07,16,281,,04,09,320,*71

$GPGSV,3,3,09,30,05,091,*4E

$GPRMC,073749.258,A,5001.2697,N,03613.0567,E,0.35,2.70,050706,,,A*65

$GPGGA,073750.258,5001.2698,N,03613.0564,E,1,04,3.4,127.9,M,,,,0000*09

$GPGSA,A,3,11,20,01,25,,,,,,,,,8.2,3.4,7.5*39

$GPGSV,3,1,09,20,74,300,27,13,70,062,,25,51,088,29,01,45,058,30*72

$GPGSV,3,2,09,11,38,194,28,10,16,289,,07,16,281,,04,09,320,*7E

$GPGSV,3,3,09,30,05,091,*4E

$GPRMC,073750.258,A,5001.2698,N,03613.0564,E,0.36,317.97,050706,,,A*6C

$GPGGA,073751.258,5001.2699,N,03613.0565,E,1,04,3.4,127.3,M,,,,0000*02

$GPGSA,A,3,11,20,01,25,,,,,,,,,8.2,3.4,7.5*39

$GPGSV,3,1,09,20,74,300,26,13,70,062,,25,51,088,28,01,45,058,31*73

$GPGSV,3,2,09,11,38,194,28,10,16,289,,07,16,281,,04,09,320,*7E

$GPGSV,3,3,09,30,05,091,*4E

$GPRMC,073751.258,A,5001.2699,N,03613.0565,E,0.38,356.35,050706,,,A*6E

$GPGGA,073752.258,5001.2700,N,03613.0566,E,1,04,3.4,127.4,M,,,,0000*04

$GPGSA,A,3,11,20,01,25,,,,,,,,,8.2,3.4,7.5*39

$GPGSV,3,1,09,20,74,300,26,13,70,062,,25,51,088,29,01,45,058,31*72

$GPGSV,3,2,09,11,38,194,28,10,16,289,,07,16,281,,04,09,320,*7E

$GPGSV,3,3,09,30,05,091,*4E

$GPRMC,073752.258,A,5001.2700,N,03613.0566,E,0.34,304.88,050706,,,A*62

$GPGGA,073753.258,5001.2702,N,03613.0566,E,1,04,3.4,127.4,M,,,,0000*07

$GPGSA,A,3,11,20,01,25,,,,,,,,,8.2,3.4,7.5*39

$GPGSV,3,1,09,20,74,300,26,13,70,062,,25,51,088,29,01,45,058,31*72

$GPGSV,3,2,09,11,38,194,29,10,16,289,,07,16,281,,04,09,320,*7F

$GPGSV,3,3,09,30,05,091,*4E

$GPRMC,073753.258,A,5001.2702,N,03613.0566,E,0.39,347.47,050706,,,A*68

$GPGGA,073754.258,5001.2702,N,03613.0567,E,1,04,3.4,127.1,M,,,,0000*04

$GPGSA,A,3,11,20,01,25,,,,,,,,,8.2,3.4,7.4*38

$GPGSV,3,1,09,20,74,300,26,13,70,062,,25,51,088,30,01,45,058,31*7A

$GPGSV,3,2,09,11,38,194,28,10,16,289,,07,16,281,,04,09,320,*7E

$GPGSV,3,3,09,30,05,091,*4E

$GPRMC,073754.258,A,5001.2702,N,03613.0567,E,0.36,343.36,050706,,,A*63

$GPGGA,073755.258,5001.2703,N,03613.0567,E,1,04,3.4,127.1,M,,,,0000*04

$GPGSA,A,3,11,20,01,25,,,,,,,,,8.2,3.4,7.4*38

$GPGSV,3,1,09,20,74,300,26,13,70,062,,25,51,088,29,01,45,058,30*73

$GPGSV,3,2,09,11,38,194,28,10,16,289,,07,16,281,,04,09,320,*7E

$GPGSV,3,3,09,30,05,091,*4E

$GPRMC,073755.258,A,5001.2703,N,03613.0567,E,0.37,302.68,050706,,,A*6C

$GPGGA,073756.258,5001.2705,N,03613.0565,E,1,04,3.4,127.1,M,,,,0000*03

$GPGSA,A,3,11,20,01,25,,,,,,,,,8.2,3.4,7.4*38

$GPGSV,3,1,09,20,74,300,26,13,70,062,,25,51,088,29,01,45,058,30*73

$GPGSV,3,2,09,11,38,194,27,10,16,289,,07,16,281,,04,09,320,*71

$GPGSV,3,3,09,30,05,091,*4E

$GPRMC,073756.258,A,5001.2705,N,03613.0565,E,0.59,358.54,050706,,,A*63

$GPGGA,073757.258,5001.2705,N,03613.0565,E,1,04,3.4,127.3,M,,,,0000*00

$GPGSA,A,3,11,20,01,25,,,,,,,,,8.2,3.4,7.4*38

$GPGSV,3,1,09,20,74,300,26,13,70,062,,25,51,088,29,01,45,058,31*72

$GPGSV,3,2,09,11,38,194,27,10,16,289,,07,16,281,,04,09,320,*71

$GPGSV,3,3,09,30,05,091,*4E

$GPRMC,073757.258,A,5001.2705,N,03613.0565,E,0.26,329.29,050706,,,A*66

$GPGGA,073758.258,5001.2706,N,03613.0564,E,1,04,3.4,127.1,M,,,,0000*0F

$GPGSA,A,3,11,20,01,25,,,,,,,,,8.2,3.4,7.4*38

$GPGSV,3,1,09,20,74,300,26,13,70,062,,25,51,088,29,01,45,058,31*72

$GPGSV,3,2,09,11,38,194,27,10,16,289,,07,16,281,,04,09,320,*71

$GPGSV,3,3,09,30,05,091,*4E

$GPRMC,073758.258,A,5001.2706,N,03613.0564,E,0.30,352.56,050706,,,A*68

$GPGGA,073759.257,5001.2707,N,03613.0563,E,1,04,3.4,127.6,M,,,,0000*00

$GPGSA,A,3,11,20,01,25,,,,,,,,,8.2,3.4,7.4*38

$GPGSV,3,1,09,20,74,300,26,13,70,062,,25,51,088,29,01,45,058,30*73

$GPGSV,3,2,09,11,38,194,28,10,16,289,,07,16,281,,04,09,320,*7E

$GPGSV,3,3,09,30,05,091,*4E

$GPRMC,073759.257,A,5001.2707,N,03613.0563,E,0.36,24.08,050706,,,A*5F

$GPGGA,073800.257,5001.2708,N,03613.0560,E,1,04,3.4,128.3,M,,,,0000*05

$GPGSA,A,3,11,20,01,25,,,,,,,,,8.2,3.4,7.4*38

$GPGSV,3,1,09,20,74,300,26,13,70,062,,25,51,088,29,01,45,058,31*72

$GPGSV,3,2,09,11,38,194,28,10,16,289,,07,16,281,,04,09,320,*7E

$GPGSV,3,3,09,30,05,091,*4E

$GPRMC,073800.257,A,5001.2708,N,03613.0560,E,0.30,297.96,050706,,,A*6B

$GPGGA,073801.257,5001.2710,N,03613.0562,E,1,04,3.4,129.6,M,,,,0000*0B

$GPGSA,A,3,11,20,01,25,,,,,,,,,8.2,3.4,7.4*38

$GPGSV,3,1,09,20,74,300,26,13,70,062,,25,51,088,29,01,45,058,31*72

$GPGSV,3,2,09,11,38,194,29,10,16,289,,07,16,281,,04,09,320,*7F

$GPGSV,3,3,09,30,05,091,*4E

$GPRMC,073801.257,A,5001.2710,N,03613.0562,E,0.40,12.89,050706,,,A*57

$GPGGA,073802.257,5001.2711,N,03613.0564,E,1,04,3.4,130.0,M,,,,0000*01

$GPGSA,A,3,11,20,01,25,,,,,,,,,8.2,3.4,7.4*38

$GPGSV,3,1,09,20,74,300,26,13,70,062,,25,51,088,28,01,45,058,29*7A

$GPGSV,3,2,09,11,38,194,28,10,16,289,,07,16,281,,04,09,320,*7E

$GPGSV,3,3,09,30,05,091,*4E

$GPRMC,073802.257,A,5001.2711,N,03613.0564,E,0.32,357.51,050706,,,A*61

$GPGGA,073803.257,5001.2712,N,03613.0565,E,1,04,3.4,130.4,M,,,,0000*06

$GPGSA,A,3,11,20,01,25,,,,,,,,,8.2,3.4,7.4*38

$GPGSV,3,1,09,20,74,300,27,13,70,062,,25,51,088,28,01,45,058,30*73

$GPGSV,3,2,09,11,38,194,28,10,16,289,,07,16,281,,04,09,320,*7E

$GPGSV,3,3,09,30,05,091,*4E

$GPRMC,073803.257,A,5001.2712,N,03613.0565,E,0.27,345.92,050706,,,A*6A

$GPGGA,073804.257,5001.2712,N,03613.0567,E,1,04,3.4,130.4,M,,,,0000*03

$GPGSA,A,3,11,20,01,25,,,,,,,,,8.2,3.4,7.4*38

$GPGSV,3,1,09,20,74,300,26,13,70,062,,25,51,088,28,01,45,058,30*72

$GPGSV,3,2,09,11,38,194,28,10,16,289,,07,16,281,,04,09,320,*7E

$GPGSV,3,3,09,30,05,091,*4E

$GPRMC,073804.257,A,5001.2712,N,03613.0567,E,0.44,30.49,050706,,,A*5D

$GPGGA,073805.257,5001.2714,N,03613.0567,E,1,04,3.4,130.6,M,,,,0000*06

$GPGSA,A,3,11,20,01,25,,,,,,,,,8.2,3.4,7.4*38

$GPGSV,3,1,09,20,74,300,26,13,70,062,,25,51,088,28,01,45,058,30*72

$GPGSV,3,2,09,11,38,194,28,10,16,289,,07,16,281,,04,09,320,*7E

$GPGSV,3,3,09,30,05,091,*4E

$GPRMC,073805.257,A,5001.2714,N,03613.0567,E,0.10,305.51,050706,,,A*67

$GPGGA,073806.257,5001.2716,N,03613.0566,E,1,04,3.4,130.5,M,,,,0000*05

$GPGSA,A,3,11,20,01,25,,,,,,,,,8.2,3.4,7.4*38

$GPGSV,3,1,09,20,74,300,26,13,70,062,,25,51,088,29,01,45,058,30*73

$GPGSV,3,2,09,11,38,194,29,10,16,289,,07,16,281,,04,09,320,*7F

$GPGSV,3,3,09,30,05,091,*4E

$GPRMC,073806.257,A,5001.2716,N,03613.0566,E,0.26,346.27,050706,,,A*64

$GPGGA,073807.257,5001.2717,N,03613.0568,E,1,04,3.4,131.1,M,,,,0000*0E

$GPGSA,A,3,11,20,01,25,,,,,,,,,8.1,3.4,7.4*3B

$GPGSV,3,1,09,20,74,300,26,13,70,062,,25,51,088,29,01,45,058,31*72

$GPGSV,3,2,09,11,38,194,28,10,16,289,,07,16,281,,04,09,320,*7E

$GPGSV,3,3,09,30,05,091,*4E

$GPRMC,073807.257,A,5001.2717,N,03613.0568,E,0.34,18.27,050706,,,A*51

$GPGGA,073808.257,5001.2718,N,03613.0567,E,1,04,3.4,131.7,M,,,,0000*07

$GPGSA,A,3,11,20,01,25,,,,,,,,,8.1,3.4,7.4*3B

$GPGSV,3,1,09,20,74,300,27,13,70,062,,25,51,088,29,01,45,058,30*72

$GPGSV,3,2,09,11,38,194,27,10,16,289,,07,16,281,,04,09,320,*71

$GPGSV,3,3,09,30,05,091,*4E

$GPRMC,073808.257,A,5001.2718,N,03613.0567,E,0.33,302.15,050706,,,A*60

$GPGGA,073809.257,5001.2719,N,03613.0568,E,1,04,3.4,131.7,M,,,,0000*08

$GPGSA,A,3,11,20,01,25,,,,,,,,,8.1,3.4,7.4*3B

$GPGSV,3,1,09,20,74,300,27,13,70,062,,25,51,088,29,01,45,058,30*72

$GPGSV,3,2,09,11,38,194,27,10,16,289,,07,16,281,,04,09,320,*71

$GPGSV,3,3,09,30,05,091,*4E

$GPRMC,073809.257,A,5001.2719,N,03613.0568,E,0.46,26.98,050706,,,A*5D

$GPGGA,073810.257,5001.2720,N,03613.0570,E,1,04,3.4,131.9,M,,,,0000*0D

$GPGSA,A,3,11,20,01,25,,,,,,,,,8.1,3.4,7.4*3B

$GPGSV,3,1,09,20,74,300,26,13,70,062,,25,51,088,28,01,45,058,30*72

$GPGSV,3,2,09,11,38,194,27,10,16,289,,07,16,281,,04,09,320,*71

$GPGSV,3,3,09,30,05,091,*4E

$GPRMC,073810.257,A,5001.2720,N,03613.0570,E,0.13,332.30,050706,,,A*62

$GPGGA,073811.257,5001.2720,N,03613.0570,E,1,04,3.4,131.7,M,,,,0000*02

$GPGSA,A,3,11,20,01,25,,,,,,,,,8.1,3.4,7.4*3B

$GPGSV,3,1,09,20,75,300,26,13,70,062,,25,51,088,29,01,45,058,30*72

$GPGSV,3,2,09,11,38,194,29,10,16,289,,07,16,281,,04,09,320,*7F

$GPGSV,3,3,09,30,05,090,*4F

$GPRMC,073811.257,A,5001.2720,N,03613.0570,E,0.41,240.10,050706,,,A*62

$GPGGA,073812.257,5001.2719,N,03613.0569,E,1,04,3.4,131.2,M,,,,0000*06

$GPGSA,A,3,11,20,01,25,,,,,,,,,8.1,3.4,7.4*3B

$GPGSV,3,1,09,20,75,300,26,13,70,062,,25,51,088,29,01,45,058,30*72

$GPGSV,3,2,09,11,38,194,27,10,16,289,,07,16,281,,04,09,320,*71

$GPGSV,3,3,09,30,05,090,*4F

$GPRMC,073812.257,A,5001.2719,N,03613.0569,E,0.65,207.06,050706,,,A*61

$GPGGA,073813.257,5001.2719,N,03613.0565,E,1,04,3.4,130.7,M,,,,0000*0F

$GPGSA,A,3,11,20,01,25,,,,,,,,,8.1,3.4,7.4*3B

$GPGSV,3,1,09,20,75,300,26,13,70,062,,25,51,088,30,01,45,058,30*7A

$GPGSV,3,2,09,11,38,194,28,10,16,289,,07,16,281,,04,09,320,*7E

$GPGSV,3,3,09,30,05,090,*4F

$GPRMC,073813.257,A,5001.2719,N,03613.0565,E,0.69,221.49,050706,,,A*6F

$GPGGA,073814.257,5001.2717,N,03613.0563,E,1,04,3.4,130.8,M,,,,0000*0F

$GPGSA,A,3,11,20,01,25,,,,,,,,,8.1,3.4,7.4*3B

$GPGSV,3,1,09,20,75,300,26,13,70,062,,25,51,088,30,01,45,058,30*7A

$GPGSV,3,2,09,11,38,194,26,10,16,289,,07,16,281,,04,09,320,*70

$GPGSV,3,3,09,30,05,090,*4F

$GPRMC,073814.257,A,5001.2717,N,03613.0563,E,0.75,199.67,050706,,,A*61

$GPGGA,073815.257,5001.2715,N,03613.0561,E,1,04,3.4,130.9,M,,,,0000*0F

$GPGSA,A,3,11,20,01,25,,,,,,,,,8.1,3.4,7.4*3B

$GPGSV,3,1,09,20,75,300,28,13,70,062,,25,51,088,30,01,45,058,30*74

$GPGSV,3,2,09,11,38,194,29,10,16,289,,07,16,281,,04,09,320,*7F

$GPGSV,3,3,09,30,05,090,*4F

$GPRMC,073815.257,A,5001.2715,N,03613.0561,E,0.91,204.15,050706,,,A*68

$GPGGA,073816.256,5001.2713,N,03613.0560,E,1,04,3.4,131.0,M,,,,0000*02

$GPGSA,A,3,11,20,01,25,,,,,,,,,8.1,3.4,7.4*3B

$GPGSV,3,1,09,20,75,300,27,13,70,062,,25,51,088,30,01,45,058,29*73

$GPGSV,3,2,09,11,38,194,27,10,16,289,,07,16,281,,04,09,320,*71

$GPGSV,3,3,09,30,05,090,*4F

$GPRMC,073816.256,A,5001.2713,N,03613.0560,E,0.71,188.16,050706,,,A*67

$GPGGA,073817.256,5001.2711,N,03613.0560,E,1,04,3.4,130.9,M,,,,0000*09

$GPGSA,A,3,11,20,01,25,,,,,,,,,8.1,3.4,7.4*3B

$GPGSV,3,1,09,20,75,300,26,13,70,062,,25,51,088,30,01,45,058,29*72

$GPGSV,3,2,09,11,38,194,29,10,16,289,,07,16,281,,04,09,320,*7F

$GPGSV,3,3,09,30,05,090,*4F

$GPRMC,073817.256,A,5001.2711,N,03613.0560,E,0.84,174.22,050706,,,A*6A

$GPGGA,073818.256,5001.2708,N,03613.0561,E,1,04,3.4,130.9,M,,,,0000*0F

$GPGSA,A,3,11,20,01,25,,,,,,,,,8.1,3.4,7.4*3B

$GPGSV,3,1,09,20,75,300,27,13,70,062,,25,51,088,30,01,45,058,30*7B

$GPGSV,3,2,09,11,38,194,29,10,16,289,,07,16,281,,04,09,320,*7F

$GPGSV,3,3,09,30,05,090,*4F

$GPRMC,073818.256,A,5001.2708,N,03613.0561,E,1.07,156.29,050706,,,A*6D

$GPGGA,073819.256,5001.2705,N,03613.0561,E,1,04,3.4,130.9,M,,,,0000*03

$GPGSA,A,3,11,20,01,25,,,,,,,,,8.1,3.4,7.4*3B

$GPGSV,3,1,09,20,75,300,25,13,70,062,,25,51,088,30,01,45,058,30*79

$GPGSV,3,2,09,11,38,194,28,10,16,289,,07,16,281,,04,09,320,*7E

$GPGSV,3,3,09,30,05,090,*4F

$GPRMC,073819.256,A,5001.2705,N,03613.0561,E,1.19,166.09,050706,,,A*6F

$GPGGA,073820.256,5001.2703,N,03613.0561,E,1,04,3.4,131.0,M,,,,0000*07

$GPGSA,A,3,11,20,01,25,,,,,,,,,8.1,3.4,7.4*3B

$GPGSV,3,1,09,20,75,300,27,13,70,062,,25,51,088,30,01,45,058,30*7B

$GPGSV,3,2,09,11,38,194,28,10,16,289,,07,16,281,,04,09,320,*7E

$GPGSV,3,3,09,30,05,090,*4F

$GPRMC,073820.256,A,5001.2703,N,03613.0561,E,1.42,154.29,050706,,,A*6E

$GPGGA,073821.256,5001.2700,N,03613.0560,E,1,04,3.4,130.6,M,,,,0000*03

$GPGSA,A,3,11,20,01,25,,,,,,,,,8.1,3.4,7.4*3B

$GPGSV,3,1,09,20,75,300,27,13,70,062,,25,51,088,30,01,45,058,29*73

$GPGSV,3,2,09,11,38,194,28,10,16,289,,07,16,281,,04,09,320,*7E

$GPGSV,3,3,09,30,05,090,*4F

$GPRMC,073821.256,A,5001.2700,N,03613.0560,E,1.48,170.51,050706,,,A*6E

$GPGGA,073822.256,5001.2698,N,03613.0558,E,1,04,3.4,130.2,M,,,,0000*0F

$GPGSA,A,3,11,20,01,25,,,,,,,,,8.1,3.4,7.4*3B

$GPGSV,3,1,09,20,75,300,27,13,70,062,,25,51,088,30,01,45,058,30*7B

$GPGSV,3,2,09,11,38,194,28,10,16,289,,07,16,281,,04,09,320,*7E

$GPGSV,3,3,09,30,05,090,*4F

$GPRMC,073822.256,A,5001.2698,N,03613.0558,E,1.31,179.70,050706,,,A*62

$GPGGA,073823.256,5001.2696,N,03613.0554,E,1,04,3.4,130.1,M,,,,0000*0F

$GPGSA,A,3,11,20,01,25,,,,,,,,,8.1,3.4,7.3*3C

$GPGSV,3,1,09,20,75,300,26,13,70,062,,25,51,088,31,01,45,058,30*7B

$GPGSV,3,2,09,11,38,194,28,10,16,289,,07,16,281,,04,09,320,*7E

$GPGSV,3,3,09,30,05,090,*4F

$GPRMC,073823.256,A,5001.2696,N,03613.0554,E,1.25,202.31,050706,,,A*6E

$GPGGA,073824.256,5001.2694,N,03613.0551,E,1,04,3.4,130.1,M,,,,0000*0F

$GPGSA,A,3,11,20,01,25,,,,,,,,,8.1,3.4,7.3*3C

$GPGSV,3,1,09,20,75,300,26,13,70,062,,25,51,088,30,01,45,058,31*7B

$GPGSV,3,2,09,11,38,194,26,10,16,289,,07,16,281,,04,09,320,*70

$GPGSV,3,3,09,30,05,090,*4F

$GPRMC,073824.256,A,5001.2694,N,03613.0551,E,1.38,207.07,050706,,,A*62

$GPGGA,073825.256,5001.2691,N,03613.0546,E,1,04,3.4,130.3,M,,,,0000*0F

$GPGSA,A,3,11,20,01,25,,,,,,,,,8.1,3.4,7.3*3C

$GPGSV,3,1,09,20,75,300,26,13,70,062,,25,51,088,31,01,45,058,32*79

$GPGSV,3,2,09,11,38,194,26,10,16,289,,07,16,281,,04,09,320,*70

$GPGSV,3,3,09,30,05,090,*4F

$GPRMC,073825.256,A,5001.2691,N,03613.0546,E,1.38,215.19,050706,,,A*6C

$GPGGA,073826.256,5001.2688,N,03613.0542,E,1,04,3.4,130.5,M,,,,0000*06

$GPGSA,A,3,11,20,01,25,,,,,,,,,8.1,3.4,7.3*3C

$GPGSV,3,1,09,20,75,300,27,13,70,062,,25,51,088,31,01,45,058,32*78

$GPGSV,3,2,09,11,38,194,27,10,16,289,,07,16,281,,04,09,320,*71

$GPGSV,3,3,09,30,05,090,*4F

$GPRMC,073826.256,A,5001.2688,N,03613.0542,E,1.19,218.42,050706,,,A*63

$GPGGA,073827.256,5001.2686,N,03613.0539,E,1,04,3.4,130.6,M,,,,0000*06

$GPGSA,A,3,11,20,01,25,,,,,,,,,8.1,3.4,7.3*3C

$GPGSV,3,1,09,20,75,300,27,13,70,062,,25,51,088,31,01,45,058,32*78

$GPGSV,3,2,09,11,38,194,26,10,16,289,,07,16,281,,04,09,320,*70

$GPGSV,3,3,09,30,05,090,*4F

$GPRMC,073827.256,A,5001.2686,N,03613.0539,E,1.20,218.87,050706,,,A*63

$GPGGA,073828.256,5001.2684,N,03613.0532,E,1,04,3.4,130.7,M,,,,0000*01

$GPGSA,A,3,11,20,01,25,,,,,,,,,8.1,3.4,7.3*3C

$GPGSV,3,1,09,20,75,300,27,13,70,062,,25,51,088,30,01,45,058,31*7A

$GPGSV,3,2,09,11,38,194,26,10,16,289,,07,16,281,,04,09,320,*70

$GPGSV,3,3,09,30,05,090,*4F

$GPRMC,073828.256,A,5001.2684,N,03613.0532,E,1.41,232.95,050706,,,A*69

$GPGGA,073829.256,5001.2681,N,03613.0528,E,1,04,3.4,130.7,M,,,,0000*0E

$GPGSA,A,3,11,20,01,25,,,,,,,,,8.1,3.4,7.3*3C

$GPGSV,3,1,09,20,75,300,28,13,70,062,,25,51,088,31,01,45,058,30*75

$GPGSV,3,2,09,11,38,194,28,10,16,289,,07,16,281,,04,09,320,*7E

$GPGSV,3,3,09,30,05,090,*4F

$GPRMC,073829.256,A,5001.2681,N,03613.0528,E,1.35,214.22,050706,,,A*6D

$GPGGA,073830.256,5001.2679,N,03613.0524,E,1,04,3.4,130.6,M,,,,0000*0C

$GPGSA,A,3,11,20,01,25,,,,,,,,,8.1,3.4,7.3*3C

$GPGSV,3,1,09,20,75,300,27,13,70,062,,25,51,088,30,01,45,058,31*7A

$GPGSV,3,2,09,11,38,194,27,10,16,289,,07,16,281,,04,09,320,*71

$GPGSV,3,3,09,30,05,090,*4F

$GPRMC,073830.256,A,5001.2679,N,03613.0524,E,1.39,219.84,050706,,,A*63

$GPGGA,073831.256,5001.2677,N,03613.0519,E,1,04,3.4,131.1,M,,,,0000*0B

$GPGSA,A,3,11,20,01,25,,,,,,,,,8.1,3.4,7.3*3C

$GPGSV,3,1,09,20,75,300,27,13,70,062,,25,51,088,30,01,45,058,32*79

$GPGSV,3,2,09,11,38,194,27,10,16,289,,07,16,281,,04,09,320,*71

$GPGSV,3,3,09,30,05,090,*4F

$GPRMC,073831.256,A,5001.2677,N,03613.0519,E,1.44,222.88,050706,,,A*6C

