$GPGGA,204045.000,4221.1135,N,07102.9155,W,1,06,1.5,0.3,M,-33.7,M,,0000*6D
$GPGSA,A,3,09,15,22,26,21,18,,,,,,,2.5,1.5,2.0*30
$GPRMC,204045.000,A,4221.1135,N,07102.9155,W,0.30,178.79,240308,,*17
$GPGGA,204046.000,4221.1143,N,07102.9152,W,1,06,1.5,1.5,M,-33.7,M,,0000*6F
$GPGSA,A,3,09,15,22,26,21,18,,,,,,,2.5,1.5,2.0*30
$GPRMC,204046.000,A,4221.1143,N,07102.9152,W,0.09,291.68,240308,,*1C
$GPGGA,204047.000,4221.1148,N,07102.9149,W,1,06,1.5,2.1,M,-33.7,M,,0000*68
$GPGSA,A,3,09,15,22,26,21,18,,,,,,,2.5,1.5,2.0*30
$GPGSV,3,1,12,18,81,019,25,09,66,108,30,22,44,305,29,21,44,196,25*73
$GPGSV,3,2,12,15,26,062,26,14,26,256,16,24,13,167,18,26,12,061,23*70
$GPGSV,3,3,12,19,05,313,,12,05,137,,32,03,297,,05,03,153,*7A
$GPRMC,204047.000,A,4221.1148,N,07102.9149,W,0.45,77.73,240308,,*24
$GPGGA,204048.000,4221.1150,N,07102.9146,W,1,06,1.5,2.9,M,-33.7,M,,0000*69
$GPGSA,A,3,09,15,22,26,21,18,,,,,,,2.5,1.5,2.0*30
$GPRMC,204048.000,A,4221.1150,N,07102.9146,W,0.40,186.08,240308,,*1B
$GPGGA,204049.000,4221.1152,N,07102.9142,W,1,06,1.5,3.5,M,-33.7,M,,0000*63
$GPGSA,A,3,09,15,22,26,21,18,,,,,,,2.5,1.5,2.0*30
$GPRMC,204049.000,A,4221.1152,N,07102.9142,W,0.37,173.93,240308,,*14
$GPGGA,204050.000,4221.1153,N,07102.9138,W,1,06,1.5,2.1,M,-33.7,M,,0000*62
$GPGSA,A,3,09,15,22,26,21,18,,,,,,,2.5,1.5,2.0*30
$GPRMC,204050.000,A,4221.1153,N,07102.9138,W,0.57,92.99,240308,,*22
$GPGGA,204051.000,4221.1158,N,07102.9134,W,1,06,1.5,2.9,M,-33.7,M,,0000*6C
$GPGSA,A,3,09,15,22,26,21,18,,,,,,,2.5,1.5,2.0*30
$GPRMC,204051.000,A,4221.1158,N,07102.9134,W,0.59,50.52,240308,,*23
$GPGGA,204052.000,4221.1166,N,07102.9129,W,1,06,1.5,4.1,M,-33.7,M,,0000*60
$GPGSA,A,3,09,15,22,26,21,18,,,,,,,2.5,1.5,2.0*30
$GPGSV,3,1,12,18,81,019,25,09,66,108,30,22,44,305,30,21,44,196,25*7B
$GPGSV,3,2,12,15,26,062,26,14,26,256,15,24,13,167,18,26,12,061,23*73
$GPGSV,3,3,12,19,05,313,,12,05,137,,32,03,297,,05,03,153,*7A
$GPRMC,204052.000,A,4221.1166,N,07102.9129,W,0.84,38.34,240308,,*2F
$GPGGA,204053.000,4221.1171,N,07102.9126,W,1,06,1.5,5.1,M,-33.7,M,,0000*69
$GPGSA,A,3,09,15,22,26,21,18,,,,,,,2.5,1.5,2.0*30
$GPRMC,204053.000,A,4221.1171,N,07102.9126,W,0.30,15.80,240308,,*28
$GPGGA,204054.000,4221.1173,N,07102.9126,W,1,06,1.5,5.8,M,-33.7,M,,0000*65
$GPGSA,A,3,09,15,22,26,21,18,,,,,,,2.5,1.5,2.0*30
$GPRMC,204054.000,A,4221.1173,N,07102.9126,W,0.23,41.06,240308,,*20
$GPGGA,204055.000,4221.1179,N,07102.9124,W,1,06,1.5,8.1,M,-33.7,M,,0000*68
$GPGSA,A,3,09,15,22,26,21,18,,,,,,,2.5,1.5,2.0*30
$GPRMC,204055.000,A,4221.1179,N,07102.9124,W,0.71,42.21,240308,,*28
$GPGGA,204056.000,4221.1182,N,07102.9120,W,1,06,1.5,8.6,M,-33.7,M,,0000*6C
$GPGSA,A,3,09,15,22,26,21,18,,,,,,,2.5,1.5,2.0*30
$GPRMC,204056.000,A,4221.1182,N,07102.9120,W,0.64,49.19,240308,,*2F
$GPGGA,204057.000,4221.1183,N,07102.9119,W,1,06,1.5,8.0,M,-33.7,M,,0000*60
$GPGSA,A,3,09,15,22,26,21,18,,,,,,,2.5,1.5,2.0*30
$GPGSV,3,1,12,18,81,019,25,09,66,108,30,22,44,305,31,21,44,196,26*79
$GPGSV,3,2,12,15,26,062,26,14,26,256,14,24,13,167,18,26,12,061,22*73
$GPGSV,3,3,12,19,05,313,,12,05,137,,32,03,297,,05,03,153,*7A
$GPRMC,204057.000,A,4221.1183,N,07102.9119,W,0.25,102.46,240308,,*14
$GPGGA,204058.000,4221.1187,N,07102.9118,W,1,06,1.5,8.5,M,-33.7,M,,0000*6F
$GPGSA,A,3,09,15,22,26,21,18,,,,,,,2.5,1.5,2.0*30
$GPRMC,204058.000,A,4221.1187,N,07102.9118,W,0.42,323.13,240308,,*1E
$GPGGA,204059.000,4221.1189,N,07102.9119,W,1,06,1.5,8.8,M,-33.7,M,,0000*6C
$GPGSA,A,3,09,15,22,26,21,18,,,,,,,2.5,1.5,2.0*30
$GPRMC,204059.000,A,4221.1189,N,07102.9119,W,0.15,293.29,240308,,*11
$GPGGA,204100.000,4221.1188,N,07102.9119,W,1,06,1.5,8.1,M,-33.7,M,,0000*69
$GPGSA,A,3,09,15,22,26,21,18,,,,,,,2.5,1.5,2.0*30
$GPRMC,204100.000,A,4221.1188,N,07102.9119,W,0.59,201.78,240308,,*1A
$GPGGA,204101.000,4221.1187,N,07102.9115,W,1,06,1.5,9.0,M,-33.7,M,,0000*6B
$GPGSA,A,3,09,15,22,26,21,18,,,,,,,2.5,1.5,2.0*30
$GPRMC,204101.000,A,4221.1187,N,07102.9115,W,1.01,206.41,240308,,*19
$GPGGA,204102.000,4221.1187,N,07102.9112,W,1,06,1.5,10.0,M,-33.7,M,,0000*57
$GPGSA,A,3,09,15,22,26,21,18,,,,,,,2.5,1.5,2.0*30
$GPGSV,3,1,12,18,81,019,25,09,66,108,30,22,44,305,31,21,44,196,25*7A
$GPGSV,3,2,12,15,26,062,26,14,26,256,13,24,13,167,19,26,12,061,21*76
$GPGSV,3,3,12,19,05,313,,12,05,137,,32,03,297,,05,03,153,*7A
$GPRMC,204102.000,A,4221.1187,N,07102.9112,W,0.52,205.73,240308,,*18
$GPGGA,204103.000,4221.1186,N,07102.9110,W,1,06,1.5,9.5,M,-33.7,M,,0000*68
$GPGSA,A,3,09,15,22,26,21,18,,,,,,,2.5,1.5,2.0*30
$GPRMC,204103.000,A,4221.1186,N,07102.9110,W,0.66,173.18,240308,,*12
$GPGGA,204104.000,4221.1185,N,07102.9107,W,1,06,1.5,9.6,M,-33.7,M,,0000*69
$GPGSA,A,3,09,15,22,26,21,18,,,,,,,2.5,1.5,2.0*30
$GPRMC,204104.000,A,4221.1185,N,07102.9107,W,0.34,84.67,240308,,*26
$GPGGA,204105.000,4221.1182,N,07102.9103,W,1,06,1.5,9.2,M,-33.7,M,,0000*6F
$GPGSA,A,3,09,15,22,26,21,18,,,,,,,2.5,1.5,2.0*30
$GPRMC,204105.000,A,4221.1182,N,07102.9103,W,0.33,118.78,240308,,*19
$GPGGA,204106.000,4221.1180,N,07102.9101,W,1,06,1.5,8.4,M,-33.7,M,,0000*6B
$GPGSA,A,3,09,15,22,26,21,18,,,,,,,2.5,1.5,2.0*30
$GPRMC,204106.000,A,4221.1180,N,07102.9101,W,0.21,94.51,240308,,*27
$GPGGA,204107.000,4221.1178,N,07102.9100,W,1,06,1.5,8.0,M,-33.7,M,,0000*68
$GPGSA,A,3,09,15,22,26,21,18,,,,,,,2.5,1.5,2.0*30
$GPGSV,3,1,12,18,81,019,25,09,66,108,30,22,44,305,31,21,44,196,24*7B
$GPGSV,3,2,12,15,26,062,27,14,26,256,,24,13,167,19,26,12,061,22*76
$GPGSV,3,3,12,19,05,313,,12,05,137,,32,03,297,,05,03,153,*7A
$GPRMC,204107.000,A,4221.1178,N,07102.9100,W,0.53,158.94,240308,,*1D
$GPGGA,204108.000,4221.1177,N,07102.9100,W,1,06,1.5,7.5,M,-33.7,M,,0000*62
$GPGSA,A,3,09,15,22,26,21,18,,,,,,,2.5,1.5,2.0*30
$GPRMC,204108.000,A,4221.1177,N,07102.9100,W,0.29,158.09,240308,,*14
$GPGGA,204109.000,4221.1177,N,07102.9097,W,1,06,1.5,7.7,M,-33.7,M,,0000*6E
$GPGSA,A,3,09,15,22,26,21,18,,,,,,,2.5,1.5,2.0*30
$GPRMC,204109.000,A,4221.1177,N,07102.9097,W,1.03,141.10,240308,,*13
$GPGGA,204110.000,4221.1175,N,07102.9095,W,1,06,1.5,6.8,M,-33.7,M,,0000*68
$GPGSA,A,3,09,15,22,26,21,18,,,,,,,2.5,1.5,2.0*30
$GPRMC,204110.000,A,4221.1175,N,07102.9095,W,1.37,199.35,240308,,*1E
$GPGGA,204111.000,4221.1178,N,07102.9093,W,1,06,1.5,9.1,M,-33.7,M,,0000*64
$GPGSA,A,3,09,15,22,26,21,18,,,,,,,2.5,1.5,2.0*30
$GPRMC,204111.000,A,4221.1178,N,07102.9093,W,0.35,159.58,240308,,*10
$GPGGA,204112.000,4221.1213,N,07102.9083,W,1,06,1.5,16.7,M,-33.7,M,,0000*50
$GPGSA,A,3,09,15,22,26,21,18,,,,,,,2.5,1.5,2.0*30
$GPGSV,3,1,12,18,81,019,25,09,66,108,31,22,44,305,31,21,44,196,23*7D
$GPGSV,3,2,12,15,26,062,28,14,26,256,,24,13,167,20,26,12,061,23*72
$GPGSV,3,3,12,19,05,313,,12,05,137,,32,03,297,,05,03,153,*7A
$GPRMC,204112.000,A,4221.1213,N,07102.9083,W,0.33,0.83,240308,,*11
$GPGGA,204113.000,4221.1214,N,07102.9081,W,1,06,1.5,17.8,M,-33.7,M,,0000*5A
$GPGSA,A,3,09,15,22,26,21,18,,,,,,,2.5,1.5,2.0*30
$GPRMC,204113.000,A,4221.1214,N,07102.9081,W,0.93,48.41,240308,,*2D
$GPGGA,204114.000,4221.1215,N,07102.9080,W,1,06,1.5,18.6,M,-33.7,M,,0000*5C
$GPGSA,A,3,09,15,22,26,21,18,,,,,,,2.5,1.5,2.0*30
$GPRMC,204114.000,A,4221.1215,N,07102.9080,W,0.26,75.71,240308,,*29
$GPGGA,204115.000,4221.1223,N,07102.9077,W,1,06,1.5,21.9,M,-33.7,M,,0000*55
$GPGSA,A,3,09,15,22,26,21,18,,,,,,,2.5,1.5,2.0*30
$GPRMC,204115.000,A,4221.1223,N,07102.9077,W,0.24,198.83,240308,,*18
$GPGGA,204116.000,4221.1224,N,07102.9080,W,1,06,1.5,23.7,M,-33.7,M,,0000*55
$GPGSA,A,3,09,15,22,26,21,18,,,,,,,2.5,1.5,2.0*30
$GPRMC,204116.000,A,4221.1224,N,07102.9080,W,0.62,24.59,240308,,*27
$GPGGA,204117.000,4221.1224,N,07102.9083,W,1,06,1.5,25.0,M,-33.7,M,,0000*56
$GPGSA,A,3,09,15,22,26,21,18,,,,,,,2.5,1.5,2.0*30
$GPGSV,3,1,12,18,81,019,25,09,66,108,31,22,44,305,34,21,44,196,23*78
$GPGSV,3,2,12,15,26,062,29,14,26,256,,24,13,167,20,26,12,061,28*78
$GPGSV,3,3,12,19,05,313,,12,05,137,,32,03,297,,05,03,153,*7A
$GPRMC,204117.000,A,4221.1224,N,07102.9083,W,0.35,53.09,240308,,*22
$GPGGA,204118.000,4221.1223,N,07102.9085,W,1,06,1.5,26.6,M,-33.7,M,,0000*5D
$GPGSA,A,3,09,15,22,26,21,18,,,,,,,2.5,1.5,2.0*30
$GPRMC,204118.000,A,4221.1223,N,07102.9085,W,0.23,86.08,240308,,*22
$GPGGA,204119.000,4221.1224,N,07102.9084,W,1,06,1.5,27.2,M,-33.7,M,,0000*5F
$GPGSA,A,3,09,15,22,26,21,18,,,,,,,2.5,1.5,2.0*30
$GPRMC,204119.000,A,4221.1224,N,07102.9084,W,0.24,97.11,240308,,*2A
$GPGGA,204120.000,4221.1230,N,07102.9082,W,1,06,1.5,28.6,M,-33.7,M,,0000*5D
$GPGSA,A,3,09,15,22,26,21,18,,,,,,,2.5,1.5,2.0*30
$GPRMC,204120.000,A,4221.1230,N,07102.9082,W,0.69,57.01,240308,,*27
$GPGGA,204121.000,4221.1230,N,07102.9083,W,1,06,1.5,28.6,M,-33.7,M,,0000*5D
$GPGSA,A,3,09,15,22,26,21,18,,,,,,,2.5,1.5,2.0*30
$GPRMC,204121.000,A,4221.1230,N,07102.9083,W,1.72,33.00,240308,,*2F
$GPGGA,204122.000,4221.1225,N,07102.9086,W,1,06,1.5,29.0,M,-33.7,M,,0000*58
$GPGSA,A,3,09,15,22,26,21,18,,,,,,,2.5,1.5,2.0*30
$GPGSV,3,1,12,18,81,019,25,09,66,108,31,22,44,305,34,21,44,196,22*79
$GPGSV,3,2,12,15,26,062,29,14,26,256,18,24,13,167,20,26,12,061,27*7E
$GPGSV,3,3,12,19,05,313,,12,05,137,,32,03,297,,05,03,153,*7A
$GPRMC,204122.000,A,4221.1225,N,07102.9086,W,0.75,21.41,240308,,*2D
$GPGGA,204123.000,4221.1225,N,07102.9087,W,1,06,1.5,29.4,M,-33.7,M,,0000*5C
$GPGSA,A,3,09,15,22,26,21,18,,,,,,,2.5,1.5,2.0*30
$GPRMC,204123.000,A,4221.1225,N,07102.9087,W,0.32,52.76,240308,,*2E
$GPGGA,204124.000,4221.1222,N,07102.9089,W,1,06,1.5,29.0,M,-33.7,M,,0000*56
$GPGSA,A,3,09,15,22,26,21,18,,,,,,,2.5,1.5,2.0*30
$GPRMC,204124.000,A,4221.1222,N,07102.9089,W,0.45,163.63,240308,,*17
$GPGGA,204125.000,4221.1232,N,07102.9089,W,1,06,1.5,29.8,M,-33.7,M,,0000*5E
$GPGSA,A,3,09,15,22,26,21,18,,,,,,,2.5,1.5,2.0*30
$GPRMC,204125.000,A,4221.1232,N,07102.9089,W,0.81,17.54,240308,,*29
$GPGGA,204126.000,4221.1242,N,07102.9090,W,1,06,1.5,30.1,M,-33.7,M,,0000*53
$GPGSA,A,3,09,15,22,26,21,18,,,,,,,2.5,1.5,2.0*30
$GPRMC,204126.000,A,4221.1242,N,07102.9090,W,2.74,1.70,240308,,*1C
$GPGGA,204127.000,4221.1252,N,07102.9093,W,1,06,1.5,30.3,M,-33.7,M,,0000*52
$GPGSA,A,3,09,15,22,26,21,18,,,,,,,2.5,1.5,2.0*30
$GPGSV,3,1,12,18,81,019,25,09,66,108,31,22,44,305,34,21,44,196,21*7A
$GPGSV,3,2,12,15,26,062,28,14,26,256,18,24,13,167,20,26,12,061,27*7F
$GPGSV,3,3,12,19,05,313,,12,05,137,,32,03,297,,05,03,153,*7A
$GPRMC,204127.000,A,4221.1252,N,07102.9093,W,2.32,9.03,240308,,*11
$GPGGA,204128.000,4221.1253,N,07102.9094,W,1,06,1.5,30.1,M,-33.7,M,,0000*59
$GPGSA,A,3,09,15,22,26,21,18,,,,,,,2.5,1.5,2.0*30
$GPRMC,204128.000,A,4221.1253,N,07102.9094,W,1.07,18.87,240308,,*21
$GPGGA,204129.000,4221.1251,N,07102.9094,W,1,06,1.5,29.6,M,-33.7,M,,0000*55
$GPGSA,A,3,09,15,22,26,21,18,,,,,,,2.5,1.5,2.0*30
$GPRMC,204129.000,A,4221.1251,N,07102.9094,W,0.34,53.96,240308,,*2C
$GPGGA,204130.000,4221.1252,N,07102.9091,W,1,06,1.5,31.2,M,-33.7,M,,0000*56
$GPGSA,A,3,09,15,22,26,21,18,,,,,,,2.5,1.5,2.0*30
$GPRMC,204130.000,A,4221.1252,N,07102.9091,W,0.24,115.70,240308,,*18
$GPGGA,204131.000,4221.1244,N,07102.9093,W,1,06,1.5,30.2,M,-33.7,M,,0000*53
$GPGSA,A,3,09,15,22,26,21,18,,,,,,,2.5,1.5,2.0*30
$GPRMC,204131.000,A,4221.1244,N,07102.9093,W,0.68,170.37,240308,,*14
$GPGGA,204132.000,4221.1242,N,07102.9092,W,1,06,1.5,30.3,M,-33.7,M,,0000*56
$GPGSA,A,3,09,15,22,26,21,18,,,,,,,2.5,1.5,2.0*30
$GPGSV,3,1,12,18,81,019,24,09,66,108,31,22,44,305,34,21,44,196,20*7A
$GPGSV,3,2,12,15,26,062,28,14,26,256,19,24,13,167,20,26,12,061,27*7E
$GPGSV,3,3,12,19,05,313,,12,05,137,,32,03,297,,05,03,153,*7A
$GPRMC,204132.000,A,4221.1242,N,07102.9092,W,0.45,99.13,240308,,*2F
$GPGGA,204133.000,4221.1241,N,07102.9091,W,1,06,1.5,29.9,M,-33.7,M,,0000*55
$GPGSA,A,3,09,15,22,26,21,18,,,,,,,2.5,1.5,2.0*30
$GPRMC,204133.000,A,4221.1241,N,07102.9091,W,0.50,33.76,240308,,*29
$GPGGA,204134.000,4221.1234,N,07102.9093,W,1,06,1.5,28.7,M,-33.7,M,,0000*5D
$GPGSA,A,3,09,15,22,26,21,18,,,,,,,2.5,1.5,2.0*30
$GPRMC,204134.000,A,4221.1234,N,07102.9093,W,0.38,27.65,240308,,*27
$GPGGA,204135.000,4221.1229,N,07102.9092,W,1,06,1.5,28.7,M,-33.7,M,,0000*51
$GPGSA,A,3,09,15,22,26,21,18,,,,,,,2.5,1.5,2.0*30
$GPRMC,204135.000,A,4221.1229,N,07102.9092,W,0.58,168.83,240308,,*1F
$GPGGA,204136.000,4221.1223,N,07102.9092,W,1,05,1.5,28.4,M,-33.7,M,,0000*58
$GPGSA,A,3,09,15,22,21,18,,,,,,,,2.9,1.5,2.4*3C
$GPRMC,204136.000,A,4221.1223,N,07102.9092,W,1.49,190.02,240308,,*19
$GPGGA,204137.000,4221.1214,N,07102.9100,W,1,06,1.5,27.6,M,-33.7,M,,0000*59
$GPGSA,A,3,09,15,22,26,21,18,,,,,,,2.5,1.5,1.9*3A
$GPGSV,3,1,12,18,81,019,24,09,66,108,23,22,44,305,29,21,44,196,19*7F
$GPGSV,3,2,12,15,26,062,20,14,26,256,19,24,13,167,19,26,12,061,21*7A
$GPGSV,3,3,12,19,05,313,,12,05,137,,32,03,297,,05,03,153,*7A
$GPRMC,204137.000,A,4221.1214,N,07102.9100,W,3.23,226.48,240308,,*18
$GPGGA,204138.000,4221.1217,N,07102.9111,W,1,06,1.5,27.3,M,-33.7,M,,0000*50
$GPGSA,A,3,09,15,22,26,21,18,,,,,,,2.5,1.5,1.9*3A
$GPRMC,204138.000,A,4221.1217,N,07102.9111,W,3.31,260.15,240308,,*1D
$GPGGA,204139.000,4221.1229,N,07102.9117,W,1,06,1.5,26.8,M,-33.7,M,,0000*50
$GPGSA,A,3,09,15,22,26,21,18,,,,,,,2.5,1.5,1.9*3A
$GPRMC,204139.000,A,4221.1229,N,07102.9117,W,2.79,308.44,240308,,*11
$GPGGA,204140.000,4221.1222,N,07102.9116,W,1,06,1.5,26.3,M,-33.7,M,,0000*5F
$GPGSA,A,3,09,15,22,26,21,18,,,,,,,2.5,1.5,1.9*3A
$GPRMC,204140.000,A,4221.1222,N,07102.9116,W,1.15,251.49,240308,,*1C
$GPGGA,204141.000,4221.1197,N,07102.9102,W,1,06,1.5,24.3,M,-33.7,M,,0000*54
$GPGSA,A,3,09,15,22,26,21,18,,,,,,,2.5,1.5,1.9*3A
$GPRMC,204141.000,A,4221.1197,N,07102.9102,W,4.08,164.30,240308,,*17
$GPGGA,204142.000,4221.1158,N,07102.9072,W,1,06,1.5,24.5,M,-33.7,M,,0000*54
$GPGSA,A,3,09,15,22,26,21,18,,,,,,,2.5,1.5,1.9*3A
$GPGSV,3,1,12,18,81,019,24,09,66,108,29,22,44,305,34,21,44,196,18*78
$GPGSV,3,2,12,15,26,062,28,14,26,256,18,24,13,167,19,26,12,061,24*76
$GPGSV,3,3,12,19,05,313,,12,05,137,,32,03,297,,05,03,153,*7A
$GPRMC,204142.000,A,4221.1158,N,07102.9072,W,7.84,164.76,240308,,*14
$GPGGA,204143.000,4221.1165,N,07102.9081,W,1,06,1.5,22.8,M,-33.7,M,,0000*5C
$GPGSA,A,3,09,15,22,26,21,18,,,,,,,2.5,1.5,1.9*3A
$GPRMC,204143.000,A,4221.1165,N,07102.9081,W,3.73,170.95,240308,,*13
$GPGGA,204144.000,4221.1175,N,07102.9094,W,1,06,1.5,20.9,M,-33.7,M,,0000*5D
$GPGSA,A,3,09,15,22,26,21,18,,,,,,,2.4,1.5,1.9*3B
$GPRMC,204144.000,A,4221.1175,N,07102.9094,W,1.56,182.63,240308,,*10
$GPGGA,204145.000,4221.1167,N,07102.9094,W,1,05,5.7,20.5,M,-33.7,M,,0000*56
$GPGSA,A,3,09,15,22,26,18,,,,,,,,7.6,5.7,5.0*34
$GPRMC,204145.000,A,4221.1167,N,07102.9094,W,2.69,185.68,240308,,*11
$GPGGA,204146.000,4221.1165,N,07102.9094,W,1,06,1.5,20.7,M,-33.7,M,,0000*50
$GPGSA,A,3,09,15,22,26,21,18,,,,,,,2.4,1.5,1.9*3B
$GPRMC,204146.000,A,4221.1165,N,07102.9094,W,1.38,190.30,240308,,*1E
$GPGGA,204147.000,4221.1158,N,07102.9097,W,1,06,1.5,19.1,M,-33.7,M,,0000*50
$GPGSA,A,3,09,15,22,26,21,18,,,,,,,2.4,1.5,1.9*3B
$GPGSV,3,1,12,18,81,019,24,09,66,108,31,22,44,305,33,21,44,196,19*77
$GPGSV,3,2,12,15,26,062,28,14,26,256,18,24,13,167,18,26,12,061,23*70
$GPGSV,3,3,12,19,05,313,,12,05,137,,32,03,297,,05,03,153,*7A
$GPRMC,204147.000,A,4221.1158,N,07102.9097,W,0.93,187.44,240308,,*17
$GPGGA,204148.000,4221.1151,N,07102.9095,W,1,06,1.5,18.3,M,-33.7,M,,0000*57
$GPGSA,A,3,09,15,22,26,21,18,,,,,,,2.4,1.5,1.9*3B
$GPRMC,204148.000,A,4221.1151,N,07102.9095,W,0.54,171.63,240308,,*14
$GPGGA,204149.000,4221.1146,N,07102.9097,W,1,06,1.5,17.3,M,-33.7,M,,0000*5D
$GPGSA,A,3,09,15,22,26,21,18,,,,,,,2.4,1.5,1.9*3B
$GPRMC,204149.000,A,4221.1146,N,07102.9097,W,1.56,192.72,240308,,*1F
$GPGGA,204150.000,4221.1134,N,07102.9100,W,1,06,1.5,16.5,M,-33.7,M,,0000*58
$GPGSA,A,3,09,15,22,26,21,18,,,,,,,2.4,1.5,1.9*3B
$GPRMC,204150.000,A,4221.1134,N,07102.9100,W,2.84,181.15,240308,,*12
$GPGGA,204151.000,4221.1130,N,07102.9098,W,1,06,1.5,17.0,M,-33.7,M,,0000*59
$GPGSA,A,3,09,15,22,26,21,18,,,,,,,2.4,1.5,1.9*3B
$GPRMC,204151.000,A,4221.1130,N,07102.9098,W,2.17,190.97,240308,,*17
$GPGGA,204152.000,4221.1126,N,07102.9101,W,1,05,5.7,18.2,M,-33.7,M,,0000*54
$GPGSA,A,3,09,15,22,26,18,,,,,,,,7.6,5.7,5.0*34
$GPGSV,3,1,12,18,81,019,23,09,66,108,31,22,44,305,33,21,44,196,18*71
$GPGSV,3,2,12,15,26,062,28,14,26,256,17,24,13,167,17,26,12,061,24*77
$GPGSV,3,3,12,19,05,313,,12,05,137,,32,03,297,,05,03,153,*7A
$GPRMC,204152.000,A,4221.1126,N,07102.9101,W,1.50,199.44,240308,,*15
$GPGGA,204153.000,4221.1114,N,07102.9107,W,1,06,1.5,17.7,M,-33.7,M,,0000*5D
$GPGSA,A,3,09,15,22,26,21,18,,,,,,,2.4,1.5,1.9*3B
$GPRMC,204153.000,A,4221.1114,N,07102.9107,W,1.02,188.34,240308,,*13
$GPGGA,204154.000,4221.1104,N,07102.9113,W,1,06,1.5,16.6,M,-33.7,M,,0000*5E
$GPGSA,A,3,09,15,22,26,21,18,,,,,,,2.4,1.5,1.9*3B
$GPRMC,204154.000,A,4221.1104,N,07102.9113,W,0.93,200.61,240308,,*1A
$GPGGA,204155.000,4221.1108,N,07102.9115,W,1,06,1.5,15.9,M,-33.7,M,,0000*59
$GPGSA,A,3,09,15,22,26,21,18,,,,,,,2.4,1.5,1.9*3B
$GPRMC,204155.000,A,4221.1108,N,07102.9115,W,0.18,204.22,240308,,*11
$GPGGA,204156.000,4221.1110,N,07102.9115,W,1,06,1.5,17.1,M,-33.7,M,,0000*59
$GPGSA,A,3,09,15,22,26,21,18,,,,,,,2.4,1.5,1.9*3B
$GPRMC,204156.000,A,4221.1110,N,07102.9115,W,0.32,37.00,240308,,*21
$GPGGA,204157.000,4221.1113,N,07102.9113,W,1,06,1.5,17.3,M,-33.7,M,,0000*5F
$GPGSA,A,3,09,15,22,26,21,18,,,,,,,2.4,1.5,1.9*3B
$GPGSV,3,1,12,18,81,019,23,09,66,108,31,22,44,305,33,21,44,196,19*70
$GPGSV,3,2,12,15,26,062,27,14,26,256,17,24,13,167,17,26,12,061,24*78
$GPGSV,3,3,12,19,05,313,,12,05,137,,32,03,297,,05,03,153,*7A
$GPRMC,204157.000,A,4221.1113,N,07102.9113,W,0.73,36.18,240308,,*28
$GPGGA,204158.000,4221.1114,N,07102.9111,W,1,06,1.5,18.0,M,-33.7,M,,0000*59
$GPGSA,A,3,09,15,22,26,21,18,,,,,,,2.4,1.5,1.9*3B
$GPRMC,204158.000,A,4221.1114,N,07102.9111,W,0.64,16.41,240308,,*2A
$GPGGA,204159.000,4221.1120,N,07102.9109,W,1,06,1.5,18.7,M,-33.7,M,,0000*51
$GPGSA,A,3,09,15,22,26,21,18,,,,,,,2.4,1.5,1.9*3B
$GPRMC,204159.000,A,4221.1120,N,07102.9109,W,1.18,21.09,240308,,*27
$GPGGA,204200.000,4221.1122,N,07102.9109,W,1,05,5.7,19.5,M,-33.7,M,,0000*5A
$GPGSA,A,3,09,15,22,26,18,,,,,,,,7.7,5.7,5.1*34
$GPRMC,204200.000,A,4221.1122,N,07102.9109,W,0.27,54.03,240308,,*2F
$GPGGA,204201.000,4221.1130,N,07102.9106,W,1,06,1.5,21.5,M,-33.7,M,,0000*59
$GPGSA,A,3,09,15,22,26,21,18,,,,,,,2.4,1.5,1.9*3B
$GPRMC,204201.000,A,4221.1130,N,07102.9106,W,0.18,202.48,240308,,*10
$GPGGA,204202.000,4221.1131,N,07102.9107,W,1,05,5.7,22.8,M,-33.7,M,,0000*51
$GPGSA,A,3,09,15,22,26,18,,,,,,,,7.7,5.7,5.1*34
$GPGSV,3,1,12,18,81,019,23,09,66,108,30,22,44,305,32,21,44,196,18*71
$GPGSV,3,2,12,15,26,062,27,14,26,256,17,24,13,167,16,26,12,061,25*78
$GPGSV,3,3,12,19,05,313,,12,05,137,,32,03,297,,05,03,153,*7A
$GPRMC,204202.000,A,4221.1131,N,07102.9107,W,0.23,78.68,240308,,*26
$GPGGA,204203.000,4221.1130,N,07102.9107,W,1,05,5.7,23.7,M,-33.7,M,,0000*5F
$GPGSA,A,3,09,15,22,26,18,,,,,,,,7.7,5.7,5.1*34
$GPRMC,204203.000,A,4221.1130,N,07102.9107,W,0.22,171.36,240308,,*14
$GPGGA,204204.000,4221.1136,N,07102.9106,W,1,06,1.5,25.8,M,-33.7,M,,0000*53
$GPGSA,A,3,09,15,22,26,21,18,,,,,,,2.4,1.5,1.9*3B
$GPRMC,204204.000,A,4221.1136,N,07102.9106,W,0.21,82.94,240308,,*22
$GPGGA,204205.000,4221.1140,N,07102.9104,W,1,05,5.8,28.0,M,-33.7,M,,0000*5E
$GPGSA,A,3,09,15,22,26,18,,,,,,,,7.7,5.8,5.1*3B
$GPRMC,204205.000,A,4221.1140,N,07102.9104,W,0.83,23.60,240308,,*28
$GPGGA,204206.000,4221.1143,N,07102.9102,W,1,05,5.8,29.6,M,-33.7,M,,0000*5F
$GPGSA,A,3,09,15,22,26,18,,,,,,,,7.7,5.8,5.1*3B
$GPRMC,204206.000,A,4221.1143,N,07102.9102,W,1.42,10.48,240308,,*28
$GPGGA,204207.000,4221.1148,N,07102.9101,W,1,04,4.4,30.0,M,-33.7,M,,0000*54
$GPGSA,A,3,15,22,26,18,,,,,,,,,4.5,4.4,1.0*3B
$GPGSV,3,1,12,18,82,029,23,09,66,104,22,22,45,305,28,21,42,195,18*71
$GPGSV,3,2,12,14,27,257,17,15,25,063,24,24,12,167,16,26,11,062,26*7B
$GPGSV,3,3,12,12,06,136,,19,05,312,,32,04,298,,05,04,152,*77
$GPRMC,204207.000,A,4221.1148,N,07102.9101,W,2.24,17.48,240308,,*25
$GPGGA,204208.000,4221.1153,N,07102.9078,W,1,05,5.8,30.2,M,-33.7,M,,0000*50
$GPGSA,A,3,09,15,22,26,18,,,,,,,,7.7,5.8,5.1*3B
$GPRMC,204208.000,A,4221.1153,N,07102.9078,W,4.41,58.75,240308,,*2F
$GPGGA,204209.000,4221.1153,N,07102.9055,W,1,05,5.8,31.6,M,-33.7,M,,0000*5B
$GPGSA,A,3,09,15,22,26,18,,,,,,,,7.7,5.8,5.1*3B
$GPRMC,204209.000,A,4221.1153,N,07102.9055,W,4.83,76.09,240308,,*28
$GPGGA,204210.000,4221.1196,N,07102.9050,W,1,06,1.5,34.7,M,-33.7,M,,0000*51
$GPGSA,A,3,09,15,22,26,21,18,,,,,,,2.4,1.5,1.9*3B
$GPRMC,204210.000,A,4221.1196,N,07102.9050,W,6.11,22.43,240308,,*2A
$GPGGA,204211.000,4221.1227,N,07102.9062,W,1,06,1.5,35.8,M,-33.7,M,,0000*56
$GPGSA,A,3,09,15,22,26,21,18,,,,,,,2.4,1.5,1.9*3B
$GPRMC,204211.000,A,4221.1227,N,07102.9062,W,7.62,1.73,240308,,*14
$GPGGA,204212.000,4221.1250,N,07102.9061,W,1,06,1.5,38.4,M,-33.7,M,,0000*57
$GPGSA,A,3,09,15,22,26,21,18,,,,,,,2.4,1.5,1.9*3B
$GPGSV,3,1,12,18,82,029,23,09,66,104,29,22,45,305,32,21,42,195,19*70
$GPGSV,3,2,12,14,27,257,18,15,25,063,28,24,12,167,,26,11,062,27*7E
$GPGSV,3,3,12,12,06,136,14,19,05,312,,32,04,298,,05,04,152,*72
$GPRMC,204212.000,A,4221.1250,N,07102.9061,W,6.20,17.93,240308,,*2A
$GPGGA,204213.000,4221.1252,N,07102.9057,W,1,06,1.5,39.0,M,-33.7,M,,0000*54
$GPGSA,A,3,09,15,22,26,21,18,,,,,,,2.4,1.5,1.9*3B
$GPRMC,204213.000,A,4221.1252,N,07102.9057,W,3.15,16.89,240308,,*25
$GPGGA,204214.000,4221.1248,N,07102.9061,W,1,06,1.5,40.2,M,-33.7,M,,0000*51
$GPGSA,A,3,09,15,22,26,21,18,,,,,,,2.4,1.5,1.9*3B
$GPRMC,204214.000,A,4221.1248,N,07102.9061,W,1.58,20.73,240308,,*27
$GPGGA,204215.000,4221.1240,N,07102.9065,W,1,06,1.5,40.6,M,-33.7,M,,0000*58
$GPGSA,A,3,09,15,22,26,21,18,,,,,,,2.4,1.5,1.9*3B
$GPRMC,204215.000,A,4221.1240,N,07102.9065,W,0.77,56.47,240308,,*20
$GPGGA,204216.000,4221.1246,N,07102.9063,W,1,06,1.5,43.7,M,-33.7,M,,0000*59
$GPGSA,A,3,09,15,22,26,21,18,,,,,,,2.4,1.5,1.9*3B
$GPRMC,204216.000,A,4221.1246,N,07102.9063,W,1.77,24.91,240308,,*2C
$GPGGA,204217.000,4221.1241,N,07102.9059,W,1,06,1.5,44.0,M,-33.7,M,,0000*56
$GPGSA,A,3,09,15,22,26,21,18,,,,,,,2.4,1.5,1.9*3B
$GPGSV,3,1,12,18,82,029,23,09,66,104,29,22,45,305,32,21,42,195,19*70
$GPGSV,3,2,12,14,27,257,22,15,25,063,27,24,12,167,,26,11,062,27*78
$GPGSV,3,3,12,12,06,136,14,19,05,312,,32,04,298,,05,04,152,*72
$GPRMC,204217.000,A,4221.1241,N,07102.9059,W,1.07,31.50,240308,,*2D
$GPGGA,204218.000,4221.1232,N,07102.9055,W,1,06,1.5,44.4,M,-33.7,M,,0000*55
$GPGSA,A,3,09,15,22,26,21,18,,,,,,,2.4,1.5,1.9*3B
$GPRMC,204218.000,A,4221.1232,N,07102.9055,W,0.59,68.50,240308,,*2C
$GPGGA,204219.000,4221.1234,N,07102.9049,W,1,06,1.5,46.6,M,-33.7,M,,0000*5F
$GPGSA,A,3,09,15,22,26,21,18,,,,,,,2.4,1.5,1.9*3B
$GPRMC,204219.000,A,4221.1234,N,07102.9049,W,1.09,25.06,240308,,*28
$GPGGA,204220.000,4221.1232,N,07102.9043,W,1,06,1.5,48.1,M,-33.7,M,,0000*50
$GPGSA,A,3,09,15,22,26,21,18,,,,,,,2.4,1.5,1.9*3B
$GPRMC,204220.000,A,4221.1232,N,07102.9043,W,1.78,54.77,240308,,*28
$GPGGA,204221.000,4221.1227,N,07102.9039,W,1,06,1.5,48.6,M,-33.7,M,,0000*5F
$GPGSA,A,3,09,15,22,26,21,18,,,,,,,2.4,1.5,1.9*3B
$GPRMC,204221.000,A,4221.1227,N,07102.9039,W,1.15,49.76,240308,,*26
$GPGGA,204222.000,4221.1222,N,07102.9037,W,1,06,1.5,48.3,M,-33.7,M,,0000*52
$GPGSA,A,3,09,15,22,26,21,18,,,,,,,2.4,1.5,1.9*3B
$GPGSV,3,1,12,18,82,029,24,09,66,104,28,22,45,305,31,21,42,195,20*7F
$GPGSV,3,2,12,14,27,257,22,15,25,063,25,24,12,167,,26,11,062,27*7A
$GPGSV,3,3,12,12,06,136,13,19,05,312,,32,04,298,,05,04,152,*75
$GPRMC,204222.000,A,4221.1222,N,07102.9037,W,0.61,51.61,240308,,*23
$GPGGA,204223.000,4221.1218,N,07102.9036,W,1,06,1.5,48.5,M,-33.7,M,,0000*5D
$GPGSA,A,3,09,15,22,26,21,18,,,,,,,2.4,1.5,1.9*3B
$GPRMC,204223.000,A,4221.1218,N,07102.9036,W,0.59,76.58,240308,,*2E
$GPGGA,204224.000,4221.1213,N,07102.9036,W,1,06,1.5,48.0,M,-33.7,M,,0000*54
$GPGSA,A,3,09,15,22,26,21,18,,,,,,,2.4,1.5,1.9*3B
$GPRMC,204224.000,A,4221.1213,N,07102.9036,W,0.43,109.21,240308,,*1E
$GPGGA,204225.000,4221.1208,N,07102.9035,W,1,06,1.5,46.7,M,-33.7,M,,0000*55
$GPGSA,A,3,09,15,22,26,21,18,,,,,,,2.4,1.5,1.9*3B
$GPRMC,204225.000,A,4221.1208,N,07102.9035,W,0.55,158.89,240308,,*17
$GPGGA,204226.000,4221.1202,N,07102.9038,W,1,06,1.5,45.9,M,-33.7,M,,0000*5C
$GPGSA,A,3,09,15,22,26,21,18,,,,,,,2.4,1.5,1.9*3B
$GPRMC,204226.000,A,4221.1202,N,07102.9038,W,1.10,170.79,240308,,*16
$GPGGA,204227.000,4221.1190,N,07102.9042,W,1,06,1.5,44.3,M,-33.7,M,,0000*53
$GPGSA,A,3,09,15,22,26,21,18,,,,,,,2.4,1.5,1.9*3B
$GPGSV,3,1,12,18,82,029,24,09,66,104,28,22,45,305,31,21,42,195,20*7F
$GPGSV,3,2,12,14,27,257,23,15,25,063,25,24,12,167,,26,11,062,27*7B
$GPGSV,3,3,12,12,06,136,,19,05,312,,32,04,298,,05,04,152,*77
$GPRMC,204227.000,A,4221.1190,N,07102.9042,W,1.49,180.04,240308,,*1B
$GPGGA,204228.000,4221.1176,N,07102.9048,W,1,06,1.5,42.2,M,-33.7,M,,0000*59
$GPGSA,A,3,09,15,22,26,21,18,,,,,,,2.4,1.5,1.9*3B
$GPRMC,204228.000,A,4221.1176,N,07102.9048,W,0.88,182.68,240308,,*12
$GPGGA,204229.000,4221.1164,N,07102.9051,W,1,06,1.5,39.7,M,-33.7,M,,0000*5A
$GPGSA,A,3,09,15,22,26,21,18,,,,,,,2.4,1.5,1.9*3B
$GPRMC,204229.000,A,4221.1164,N,07102.9051,W,0.89,176.09,240308,,*15
$GPGGA,204230.000,4221.1157,N,07102.9053,W,1,06,1.5,37.2,M,-33.7,M,,0000*5B
$GPGSA,A,3,09,15,22,26,21,18,,,,,,,2.4,1.5,1.9*3B
$GPRMC,204230.000,A,4221.1157,N,07102.9053,W,0.88,188.88,240308,,*16
$GPGGA,204231.000,4221.1149,N,07102.9054,W,1,06,1.5,34.0,M,-33.7,M,,0000*53
$GPGSA,A,3,09,15,22,26,21,18,,,,,,,2.4,1.5,1.9*3B
$GPRMC,204231.000,A,4221.1149,N,07102.9054,W,1.08,193.02,240308,,*1E
$GPGGA,204232.000,4221.1144,N,07102.9056,W,1,06,1.5,32.2,M,-33.7,M,,0000*5B
$GPGSA,A,3,09,15,22,26,21,18,,,,,,,2.4,1.5,1.9*3B
$GPGSV,3,1,12,18,82,029,25,09,66,104,27,22,45,305,32,21,42,195,20*72
$GPGSV,3,2,12,14,27,257,23,15,25,063,25,24,12,167,,26,11,062,27*7B
$GPGSV,3,3,12,12,06,136,,19,05,312,,32,04,298,,05,04,152,*77
$GPRMC,204232.000,A,4221.1144,N,07102.9056,W,1.17,199.42,240308,,*12
$GPGGA,204233.000,4221.1138,N,07102.9054,W,1,06,1.5,31.0,M,-33.7,M,,0000*52
$GPGSA,A,3,09,15,22,26,21,18,,,,,,,2.4,1.5,1.9*3B
$GPRMC,204233.000,A,4221.1138,N,07102.9054,W,0.91,188.03,240308,,*10
$GPGGA,204234.000,4221.1137,N,07102.9056,W,1,06,1.5,30.0,M,-33.7,M,,0000*59
$GPGSA,A,3,09,15,22,26,21,18,,,,,,,2.4,1.5,1.9*3B
$GPRMC,204234.000,A,4221.1137,N,07102.9056,W,0.63,215.31,240308,,*11
$GPGGA,204235.000,4221.1132,N,07102.9057,W,1,06,1.5,29.0,M,-33.7,M,,0000*54
$GPGSA,A,3,09,15,22,26,21,18,,,,,,,2.4,1.5,1.9*3B
$GPRMC,204235.000,A,4221.1132,N,07102.9057,W,0.40,206.99,240308,,*15
$GPGGA,204236.000,4221.1127,N,07102.9060,W,1,06,1.5,27.9,M,-33.7,M,,0000*50
$GPGSA,A,3,09,15,22,26,21,18,,,,,,,2.4,1.5,1.9*3B
$GPRMC,204236.000,A,4221.1127,N,07102.9060,W,0.67,181.80,240308,,*17
$GPGGA,204237.000,4221.1121,N,07102.9061,W,1,06,1.5,26.7,M,-33.7,M,,0000*59
$GPGSA,A,3,09,15,22,26,21,18,,,,,,,2.4,1.5,1.9*3B
$GPGSV,3,1,12,18,82,029,25,09,66,104,26,22,45,305,29,21,42,195,20*79
$GPGSV,3,2,12,14,27,257,22,15,25,063,25,24,12,167,,26,11,062,27*7A
$GPGSV,3,3,12,12,06,136,,19,05,312,,32,04,298,,05,04,152,*77
$GPRMC,204237.000,A,4221.1121,N,07102.9061,W,1.43,194.77,240308,,*1A
$GPGGA,204238.000,4221.1116,N,07102.9062,W,1,06,1.5,27.3,M,-33.7,M,,0000*54
$GPGSA,A,3,09,15,22,26,21,18,,,,,,,2.4,1.5,1.9*3B
$GPRMC,204238.000,A,4221.1116,N,07102.9062,W,1.84,192.28,240308,,*15
$GPGGA,204239.000,4221.1115,N,07102.9063,W,1,06,1.5,27.2,M,-33.7,M,,0000*56
$GPGSA,A,3,09,15,22,26,21,18,,,,,,,2.4,1.5,1.9*3B
$GPRMC,204239.000,A,4221.1115,N,07102.9063,W,1.39,196.29,240308,,*15
$GPGGA,204240.000,4221.1108,N,07102.9063,W,1,06,1.5,26.4,M,-33.7,M,,0000*53
$GPGSA,A,3,09,15,22,26,21,18,,,,,,,2.4,1.5,1.9*3B
$GPRMC,204240.000,A,4221.1108,N,07102.9063,W,1.58,180.70,240308,,*1B
$GPGGA,204241.000,4221.1105,N,07102.9065,W,1,06,1.5,25.7,M,-33.7,M,,0000*59
$GPGSA,A,3,09,15,22,26,21,18,,,,,,,2.4,1.5,1.9*3B
$GPRMC,204241.000,A,4221.1105,N,07102.9065,W,1.49,187.24,240308,,*17
$GPGGA,204242.000,4221.1102,N,07102.9062,W,1,06,1.5,24.7,M,-33.7,M,,0000*5B
$GPGSA,A,3,09,15,22,26,21,18,,,,,,,2.4,1.5,1.9*3B
$GPGSV,3,1,12,18,82,029,26,09,66,104,25,22,45,305,27,21,42,195,19*7D
$GPGSV,3,2,12,14,27,257,22,15,25,063,26,24,12,167,,26,11,062,27*79
$GPGSV,3,3,12,12,06,136,,19,05,312,,32,04,298,,05,04,152,*77
$GPRMC,204242.000,A,4221.1102,N,07102.9062,W,1.00,185.20,240308,,*1F
$GPGGA,204243.000,4221.1106,N,07102.9058,W,1,06,1.5,25.3,M,-33.7,M,,0000*52
$GPGSA,A,3,09,15,22,26,21,18,,,,,,,2.4,1.5,1.9*3B
$GPRMC,204243.000,A,4221.1106,N,07102.9058,W,0.34,322.29,240308,,*13
$GPGGA,204244.000,4221.1111,N,07102.9058,W,1,06,1.5,25.1,M,-33.7,M,,0000*51
$GPGSA,A,3,09,15,22,26,21,18,,,,,,,2.4,1.5,1.9*3B
$GPRMC,204244.000,A,4221.1111,N,07102.9058,W,0.61,10.06,240308,,*2D
$GPGGA,204245.000,4221.1118,N,07102.9055,W,1,06,1.5,25.9,M,-33.7,M,,0000*5C
$GPGSA,A,3,09,15,22,26,21,18,,,,,,,2.4,1.5,1.9*3B
$GPRMC,204245.000,A,4221.1118,N,07102.9055,W,0.44,244.69,240308,,*15
$GPGGA,204246.000,4221.1119,N,07102.9057,W,1,06,1.5,26.2,M,-33.7,M,,0000*54
$GPGSA,A,3,09,15,22,26,21,18,,,,,,,2.4,1.5,1.9*3B
$GPRMC,204246.000,A,4221.1119,N,07102.9057,W,0.24,243.92,240308,,*10
$GPGGA,204247.000,4221.1120,N,07102.9059,W,1,06,1.5,25.0,M,-33.7,M,,0000*50
$GPGSA,A,3,09,15,22,26,21,18,,,,,,,2.4,1.5,1.9*3B
$GPGSV,3,1,12,18,82,029,27,09,66,104,25,22,45,305,27,21,42,195,20*76
$GPGSV,3,2,12,14,27,257,21,15,25,063,25,24,12,167,,26,11,062,29*77
$GPGSV,3,3,12,12,06,136,,19,05,312,,32,04,298,,05,04,152,*77
$GPRMC,204247.000,A,4221.1120,N,07102.9059,W,0.60,222.09,240308,,*10
$GPGGA,204248.000,4221.1123,N,07102.9064,W,1,06,1.5,24.2,M,-33.7,M,,0000*51
$GPGSA,A,3,09,15,22,26,21,18,,,,,,,2.4,1.5,1.9*3B
$GPRMC,204248.000,A,4221.1123,N,07102.9064,W,0.08,151.78,240308,,*1D
$GPGGA,204249.000,4221.1124,N,07102.9062,W,1,06,1.5,24.8,M,-33.7,M,,0000*5B
$GPGSA,A,3,09,15,22,26,21,18,,,,,,,2.4,1.5,1.9*3B
$GPRMC,204249.000,A,4221.1124,N,07102.9062,W,0.29,300.89,240308,,*16
$GPGGA,204250.000,4221.1127,N,07102.9067,W,1,06,1.5,25.6,M,-33.7,M,,0000*5A
$GPGSA,A,3,09,15,22,26,21,18,,,,,,,2.4,1.5,1.9*3B
$GPRMC,204250.000,A,4221.1127,N,07102.9067,W,1.39,303.09,240308,,*13
$GPGGA,204251.000,4221.1128,N,07102.9074,W,1,06,1.5,25.5,M,-33.7,M,,0000*55
$GPGSA,A,3,09,15,22,26,21,18,,,,,,,2.4,1.5,1.9*3B
$GPRMC,204251.000,A,4221.1128,N,07102.9074,W,1.21,286.09,240308,,*1A
$GPGGA,204252.000,4221.1126,N,07102.9080,W,1,06,1.5,24.9,M,-33.7,M,,0000*5E
$GPGSA,A,3,09,15,22,26,21,18,,,,,,,2.4,1.5,1.9*3B
$GPGSV,3,1,12,18,82,029,27,09,66,104,25,22,45,305,26,21,42,195,20*77
$GPGSV,3,2,12,14,27,257,20,15,25,063,24,24,12,167,,26,11,062,28*76
$GPGSV,3,3,12,12,06,136,,19,05,312,,32,04,298,,05,04,152,*77
$GPRMC,204252.000,A,4221.1126,N,07102.9080,W,0.72,218.97,240308,,*1B
$GPGGA,204253.000,4221.1128,N,07102.9088,W,1,06,1.5,23.9,M,-33.7,M,,0000*5E
$GPGSA,A,3,09,15,22,26,21,18,,,,,,,2.4,1.5,1.9*3B
$GPRMC,204253.000,A,4221.1128,N,07102.9088,W,0.21,270.33,240308,,*1A
$GPGGA,204254.000,4221.1125,N,07102.9084,W,1,06,1.5,24.5,M,-33.7,M,,0000*53
$GPGSA,A,3,09,15,22,26,21,18,,,,,,,2.4,1.5,1.9*3B
$GPRMC,204254.000,A,4221.1125,N,07102.9084,W,0.87,143.01,240308,,*12
$GPGGA,204255.000,4221.1124,N,07102.9082,W,1,06,1.5,25.0,M,-33.7,M,,0000*51
$GPGSA,A,3,09,15,22,26,21,18,,,,,,,2.4,1.5,1.9*3B
$GPRMC,204255.000,A,4221.1124,N,07102.9082,W,0.73,119.67,240308,,*10
$GPGGA,204256.000,4221.1123,N,07102.9077,W,1,06,1.5,25.3,M,-33.7,M,,0000*5C
$GPGSA,A,3,09,15,22,26,21,18,,,,,,,2.4,1.5,1.9*3B
$GPRMC,204256.000,A,4221.1123,N,07102.9077,W,0.54,90.36,240308,,*2F
$GPGGA,204257.000,4221.1123,N,07102.9079,W,1,06,1.5,24.6,M,-33.7,M,,0000*57
$GPGSA,A,3,09,15,22,26,21,18,,,,,,,2.4,1.5,1.9*3B
$GPGSV,3,1,12,18,82,029,28,09,66,104,24,22,45,305,26,21,42,195,22*7B
$GPGSV,3,2,12,14,27,257,20,15,25,063,24,24,12,167,,26,11,062,28*76
$GPGSV,3,3,12,12,06,136,13,19,05,312,,32,04,298,,05,04,152,*75
$GPRMC,204257.000,A,4221.1123,N,07102.9079,W,0.38,179.95,240308,,*15
$GPGGA,204258.000,4221.1121,N,07102.9073,W,1,06,1.5,24.1,M,-33.7,M,,0000*57
$GPGSA,A,3,09,15,22,26,21,18,,,,,,,2.4,1.5,1.9*3B
$GPRMC,204258.000,A,4221.1121,N,07102.9073,W,1.35,154.99,240308,,*1D
$GPGGA,204259.000,4221.1122,N,07102.9070,W,1,06,1.5,23.4,M,-33.7,M,,0000*54
$GPGSA,A,3,09,15,22,26,21,18,,,,,,,2.4,1.5,1.9*3B
$GPRMC,204259.000,A,4221.1122,N,07102.9070,W,0.46,115.12,240308,,*1F
$GPGGA,204300.000,4221.1123,N,07102.9067,W,1,06,1.5,23.1,M,-33.7,M,,0000*5B
$GPGSA,A,3,09,15,22,26,21,18,,,,,,,2.4,1.5,1.9*3B
$GPRMC,204300.000,A,4221.1123,N,07102.9067,W,0.29,218.84,240308,,*1D
$GPGGA,204301.000,4221.1123,N,07102.9061,W,1,06,1.5,23.1,M,-33.7,M,,0000*5C
$GPGSA,A,3,09,15,22,26,21,18,,,,,,,2.4,1.5,1.9*3B
$GPRMC,204301.000,A,4221.1123,N,07102.9061,W,0.34,209.67,240308,,*1B
$GPGGA,204302.000,4221.1127,N,07102.9061,W,1,06,1.5,22.3,M,-33.7,M,,0000*58
$GPGSA,A,3,09,15,22,26,21,18,,,,,,,2.4,1.5,1.9*3B
$GPGSV,3,1,12,18,82,029,28,09,66,104,20,22,45,305,23,21,42,195,23*7B
$GPGSV,3,2,12,14,27,257,20,15,25,063,23,24,12,167,,26,11,062,27*7E
$GPGSV,3,3,12,12,06,136,,19,05,312,,32,04,298,,05,04,152,*77
$GPRMC,204302.000,A,4221.1127,N,07102.9061,W,0.43,326.02,240308,,*13
$GPGGA,204303.000,4221.1136,N,07102.9064,W,1,06,1.5,22.7,M,-33.7,M,,0000*58
$GPGSA,A,3,09,15,22,26,21,18,,,,,,,2.4,1.5,1.9*3B
$GPRMC,204303.000,A,4221.1136,N,07102.9064,W,0.19,297.99,240308,,*11
$GPGGA,204304.000,4221.1155,N,07102.9064,W,1,06,1.5,23.7,M,-33.7,M,,0000*5B
$GPGSA,A,3,09,15,22,26,21,18,,,,,,,2.4,1.5,1.9*3B
$GPRMC,204304.000,A,4221.1155,N,07102.9064,W,0.72,30.47,240308,,*22
$GPGGA,204305.000,4221.1180,N,07102.9056,W,1,06,1.5,26.3,M,-33.7,M,,0000*52
$GPGSA,A,3,09,15,22,26,21,18,,,,,,,2.4,1.5,1.9*3B
$GPRMC,204305.000,A,4221.1180,N,07102.9056,W,0.88,83.34,240308,,*23
$GPGGA,204306.000,4221.1192,N,07102.9055,W,1,06,1.5,26.9,M,-33.7,M,,0000*5B
$GPGSA,A,3,09,15,22,26,21,18,,,,,,,2.4,1.5,1.9*3B
$GPRMC,204306.000,A,4221.1192,N,07102.9055,W,0.54,134.79,240308,,*15
$GPGGA,204307.000,4221.1190,N,07102.9050,W,1,06,1.5,26.8,M,-33.7,M,,0000*5C
$GPGSA,A,3,09,15,22,26,21,18,,,,,,,2.4,1.5,1.9*3B
$GPGSV,3,1,12,18,82,029,28,09,66,104,19,22,45,305,22,21,42,195,24*77
$GPGSV,3,2,12,14,27,257,20,15,25,063,23,24,12,167,,26,11,062,23*7A
$GPGSV,3,3,12,12,06,136,,19,05,312,,32,04,298,,05,04,152,*77
$GPRMC,204307.000,A,4221.1190,N,07102.9050,W,0.91,131.41,240308,,*14
$GPGGA,204308.000,4221.1188,N,07102.9042,W,1,06,1.5,27.7,M,-33.7,M,,0000*57
$GPGSA,A,3,09,15,22,26,21,18,,,,,,,2.4,1.5,1.9*3B
$GPRMC,204308.000,A,4221.1188,N,07102.9042,W,0.66,90.83,240308,,*2D
$GPGGA,204309.000,4221.1197,N,07102.9039,W,1,06,1.5,28.4,M,-33.7,M,,0000*58
$GPGSA,A,3,09,15,22,26,21,18,,,,,,,2.4,1.5,1.9*3B
$GPRMC,204309.000,A,4221.1197,N,07102.9039,W,1.09,6.64,240308,,*10
$GPGGA,204310.000,4221.1206,N,07102.9044,W,1,06,1.5,27.3,M,-33.7,M,,0000*59
$GPGSA,A,3,09,15,22,26,21,18,,,,,,,2.4,1.5,1.9*3B
$GPRMC,204310.000,A,4221.1206,N,07102.9044,W,1.21,1.95,240308,,*1A
$GPGGA,204311.000,4221.1208,N,07102.9050,W,1,06,1.5,26.8,M,-33.7,M,,0000*59
$GPGSA,A,3,09,15,22,26,21,18,,,,,,,2.4,1.5,1.9*3B
$GPRMC,204311.000,A,4221.1208,N,07102.9050,W,0.87,340.31,240308,,*15
$GPGGA,204312.000,4221.1208,N,07102.9060,W,1,06,1.5,25.7,M,-33.7,M,,0000*55
$GPGSA,A,3,09,15,22,26,21,18,,,,,,,2.4,1.5,1.9*3B
$GPGSV,3,1,12,18,82,029,28,09,66,104,19,22,45,305,21,21,42,195,24*74
$GPGSV,3,2,12,14,27,257,20,15,25,063,24,24,12,167,17,26,11,062,23*7B
$GPGSV,3,3,12,12,06,136,,19,05,312,,32,04,298,,05,04,152,*77
$GPRMC,204312.000,A,4221.1208,N,07102.9060,W,0.86,292.70,240308,,*1F
$GPGGA,204313.000,4221.1201,N,07102.9067,W,1,06,1.5,25.0,M,-33.7,M,,0000*5D
$GPGSA,A,3,09,15,22,26,21,18,,,,,,,2.4,1.5,1.9*3B
$GPRMC,204313.000,A,4221.1201,N,07102.9067,W,0.53,233.20,240308,,*16
$GPGGA,204314.000,4221.1191,N,07102.9078,W,1,06,1.5,23.3,M,-33.7,M,,0000*5B
$GPGSA,A,3,09,15,22,26,21,18,,,,,,,2.4,1.5,1.9*3B
$GPRMC,204314.000,A,4221.1191,N,07102.9078,W,1.33,174.69,240308,,*1F
$GPGGA,204315.000,4221.1184,N,07102.9072,W,1,06,1.5,24.3,M,-33.7,M,,0000*53
$GPGSA,A,3,09,15,22,26,21,18,,,,,,,2.4,1.5,1.9*3B
$GPRMC,204315.000,A,4221.1184,N,07102.9072,W,2.20,159.43,240308,,*16
$GPGGA,204316.000,4221.1175,N,07102.9069,W,1,06,1.5,24.3,M,-33.7,M,,0000*54
$GPGSA,A,3,09,15,22,26,21,18,,,,,,,2.4,1.5,1.9*3B
$GPRMC,204316.000,A,4221.1175,N,07102.9069,W,2.05,182.06,240308,,*11
$GPGGA,204317.000,4221.1159,N,07102.9063,W,1,06,1.5,24.0,M,-33.7,M,,0000*52
$GPGSA,A,3,09,15,22,26,21,18,,,,,,,2.4,1.5,1.9*3B
$GPGSV,3,1,12,18,82,029,28,09,66,104,19,22,45,305,21,21,42,195,23*73
$GPGSV,3,2,12,14,27,257,19,15,25,063,24,24,12,167,17,26,11,062,23*71
$GPGSV,3,3,12,12,06,136,,19,05,312,,32,04,298,,05,04,152,*77
$GPRMC,204317.000,A,4221.1159,N,07102.9063,W,2.61,180.29,240308,,*19
$GPGGA,204318.000,4221.1142,N,07102.9060,W,1,06,1.5,23.4,M,-33.7,M,,0000*57
$GPGSA,A,3,09,15,22,26,21,18,,,,,,,2.4,1.5,1.9*3B
$GPRMC,204318.000,A,4221.1142,N,07102.9060,W,4.10,171.57,240308,,*18
$GPGGA,204319.000,4221.1127,N,07102.9056,W,1,05,1.6,22.8,M,-33.7,M,,0000*5D
$GPGSA,A,3,15,22,26,21,18,,,,,,,,2.9,1.6,2.4*32
$GPRMC,204319.000,A,4221.1127,N,07102.9056,W,3.76,168.24,240308,,*14
$GPGGA,204320.000,4221.1116,N,07102.9058,W,1,04,4.4,22.8,M,-33.7,M,,0000*5D
$GPGSA,A,3,15,22,26,18,,,,,,,,,4.5,4.4,1.0*3B
$GPRMC,204320.000,A,4221.1116,N,07102.9058,W,4.19,174.00,240308,,*17
$GPGGA,204321.000,4221.1109,N,07102.9064,W,1,04,4.4,22.9,M,-33.7,M,,0000*5C
$GPGSA,A,3,15,22,26,18,,,,,,,,,4.5,4.4,1.0*3B
$GPRMC,204321.000,A,4221.1109,N,07102.9064,W,3.16,183.70,240308,,*10
$GPGGA,204322.000,4221.1103,N,07102.9066,W,1,04,4.4,22.9,M,-33.7,M,,0000*57
$GPGSA,A,3,15,22,26,18,,,,,,,,,4.5,4.4,1.0*3B
$GPGSV,3,1,12,18,82,029,28,09,66,104,19,22,45,305,22,21,42,195,15*75
$GPGSV,3,2,12,14,27,257,18,15,25,063,24,24,12,167,17,26,11,062,23*70
$GPGSV,3,3,12,12,06,136,,19,05,312,,32,04,298,,05,04,152,*77
$GPRMC,204322.000,A,4221.1103,N,07102.9066,W,2.44,176.17,240308,,*16
$GPGGA,204323.000,4221.1101,N,07102.9074,W,1,04,4.4,22.5,M,-33.7,M,,0000*5B
$GPGSA,A,3,15,22,26,18,,,,,,,,,4.5,4.4,1.0*3B
$GPRMC,204323.000,A,4221.1101,N,07102.9074,W,1.89,166.60,240308,,*15
$GPGGA,204324.000,4221.1099,N,07102.9077,W,1,04,4.4,22.1,M,-33.7,M,,0000*5B
$GPGSA,A,3,15,22,26,18,,,,,,,,,4.5,4.4,1.0*3B
$GPRMC,204324.000,A,4221.1099,N,07102.9077,W,1.23,165.09,240308,,*1D
$GPGGA,204325.000,4221.1099,N,07102.9080,W,1,04,4.4,21.7,M,-33.7,M,,0000*57
$GPGSA,A,3,15,22,26,18,,,,,,,,,4.5,4.4,1.0*3B
$GPRMC,204325.000,A,4221.1099,N,07102.9080,W,0.55,215.47,240308,,*1A
$GPGGA,204326.000,4221.1099,N,07102.9082,W,1,04,4.4,21.7,M,-33.7,M,,0000*56
$GPGSA,A,3,15,22,26,18,,,,,,,,,4.5,4.4,1.0*3B
$GPRMC,204326.000,A,4221.1099,N,07102.9082,W,0.69,274.02,240308,,*12
$GPGGA,204327.000,4221.1088,N,07102.9071,W,1,05,1.6,22.0,M,-33.7,M,,0000*59
$GPGSA,A,3,15,22,26,21,18,,,,,,,,2.9,1.6,2.4*32
$GPGSV,3,1,12,18,82,029,28,09,66,104,18,22,45,305,22,21,42,195,16*77
$GPGSV,3,2,12,14,27,257,18,15,25,063,25,24,12,167,17,26,11,062,23*71
$GPGSV,3,3,12,12,06,136,,19,05,312,,32,04,298,,05,04,152,*77
$GPRMC,204327.000,A,4221.1088,N,07102.9071,W,0.65,147.33,240308,,*12
$GPGGA,204328.000,4221.1099,N,07102.9069,W,1,05,1.6,22.6,M,-33.7,M,,0000*59
$GPGSA,A,3,15,22,26,21,18,,,,,,,,2.9,1.6,2.4*32
$GPRMC,204328.000,A,4221.1099,N,07102.9069,W,1.21,151.69,240308,,*1D
$GPGGA,204329.000,4221.1097,N,07102.9065,W,1,04,4.4,22.2,M,-33.7,M,,0000*58
$GPGSA,A,3,15,22,26,18,,,,,,,,,4.5,4.4,1.0*3B
$GPRMC,204329.000,A,4221.1097,N,07102.9065,W,1.17,162.84,240308,,*18
$GPGGA,204330.000,4221.1093,N,07102.9059,W,1,04,4.4,21.8,M,-33.7,M,,0000*52
$GPGSA,A,3,15,22,26,18,,,,,,,,,4.5,4.4,1.0*3B
$GPRMC,204330.000,A,4221.1093,N,07102.9059,W,1.04,174.29,240308,,*19
$GPGGA,204331.000,4221.1093,N,07102.9060,W,1,04,4.4,20.6,M,-33.7,M,,0000*56
$GPGSA,A,3,15,22,26,18,,,,,,,,,4.5,4.4,1.0*3B
$GPRMC,204331.000,A,4221.1093,N,07102.9060,W,0.26,275.50,240308,,*1F
$GPGGA,204332.000,4221.1092,N,07102.9054,W,1,04,4.3,20.4,M,-33.7,M,,0000*56
$GPGSA,A,3,15,22,26,18,,,,,,,,,4.5,4.3,1.0*3C
$GPGSV,3,1,12,18,82,029,27,09,66,104,17,22,45,305,22,21,42,195,18*79
$GPGSV,3,2,12,14,27,257,17,15,25,063,25,24,12,167,18,26,11,062,23*71
$GPGSV,3,3,12,12,06,136,,19,05,312,,32,04,298,,05,04,152,*77
$GPRMC,204332.000,A,4221.1092,N,07102.9054,W,0.36,307.07,240308,,*1D
$GPGGA,204333.000,4221.1094,N,07102.9056,W,1,05,1.6,19.7,M,-33.7,M,,0000*5B
$GPGSA,A,3,15,22,26,21,18,,,,,,,,2.9,1.6,2.4*32
$GPRMC,204333.000,A,4221.1094,N,07102.9056,W,0.38,333.17,240308,,*10
$GPGGA,204334.000,4221.1095,N,07102.9054,W,1,05,1.6,19.4,M,-33.7,M,,0000*5C
$GPGSA,A,3,15,22,26,21,18,,,,,,,,2.9,1.6,2.4*32
$GPRMC,204334.000,A,4221.1095,N,07102.9054,W,0.39,128.65,240308,,*18
$GPGGA,204335.000,4221.1094,N,07102.9051,W,1,05,1.6,19.1,M,-33.7,M,,0000*5C
$GPGSA,A,3,15,22,26,21,18,,,,,,,,2.9,1.6,2.4*32
$GPRMC,204335.000,A,4221.1094,N,07102.9051,W,0.56,182.87,240308,,*18
$GPGGA,204336.000,4221.1094,N,07102.9049,W,1,05,1.6,19.0,M,-33.7,M,,0000*57
$GPGSA,A,3,15,22,26,21,18,,,,,,,,2.9,1.6,2.4*32
$GPRMC,204336.000,A,4221.1094,N,07102.9049,W,0.07,239.25,240308,,*1D
$GPGGA,204337.000,4221.1096,N,07102.9051,W,1,05,1.6,19.0,M,-33.7,M,,0000*5D
$GPGSA,A,3,15,22,26,21,18,,,,,,,,2.9,1.6,2.4*32
$GPGSV,3,1,12,18,82,029,28,09,66,104,18,22,45,305,24,21,42,195,25*71
$GPGSV,3,2,12,14,27,257,17,15,25,063,26,24,12,167,18,26,11,062,23*72
$GPGSV,3,3,12,12,06,136,,19,05,312,,32,04,298,,05,04,152,*77
$GPRMC,204337.000,A,4221.1096,N,07102.9051,W,0.63,284.61,240308,,*13
$GPGGA,204338.000,4221.1091,N,07102.9051,W,1,06,1.5,19.9,M,-33.7,M,,0000*5C
$GPGSA,A,3,09,15,22,26,21,18,,,,,,,2.4,1.5,1.9*3B
$GPRMC,204338.000,A,4221.1091,N,07102.9051,W,0.24,159.83,240308,,*17
$GPGGA,204339.000,4221.1091,N,07102.9053,W,1,05,1.6,20.2,M,-33.7,M,,0000*5E
$GPGSA,A,3,15,22,26,21,18,,,,,,,,2.9,1.6,2.4*32
$GPRMC,204339.000,A,4221.1091,N,07102.9053,W,0.43,274.35,240308,,*14
$GPGGA,204340.000,4221.1091,N,07102.9049,W,1,05,1.6,20.7,M,-33.7,M,,0000*5E
$GPGSA,A,3,15,22,26,21,18,,,,,,,,2.9,1.6,2.4*32
$GPRMC,204340.000,A,4221.1091,N,07102.9049,W,0.23,239.10,240308,,*19
$GPGGA,204341.000,4221.1090,N,07102.9043,W,1,05,1.6,21.3,M,-33.7,M,,0000*51
$GPGSA,A,3,15,22,26,21,18,,,,,,,,2.9,1.6,2.4*32
$GPRMC,204341.000,A,4221.1090,N,07102.9043,W,0.15,269.34,240308,,*15
$GPGGA,204342.000,4221.1091,N,07102.9040,W,1,05,1.6,21.7,M,-33.7,M,,0000*54
$GPGSA,A,3,15,22,26,21,18,,,,,,,,2.9,1.6,2.4*32
$GPGSV,3,1,12,18,82,029,28,09,66,104,18,22,45,305,24,21,42,195,26*72
$GPGSV,3,2,12,14,27,257,19,15,25,063,28,24,12,167,19,26,11,062,22*72
$GPGSV,3,3,12,12,06,136,,19,05,312,,32,04,298,,05,04,152,*77
$GPRMC,204342.000,A,4221.1091,N,07102.9040,W,0.44,288.21,240308,,*1B
$GPGGA,204343.000,4221.1089,N,07102.9030,W,1,05,1.6,22.8,M,-33.7,M,,0000*57
$GPGSA,A,3,15,22,26,21,18,,,,,,,,2.9,1.6,2.4*32
$GPRMC,204343.000,A,4221.1089,N,07102.9030,W,0.27,197.24,240308,,*19
$GPGGA,204344.000,4221.1087,N,07102.9022,W,1,05,1.6,23.5,M,-33.7,M,,0000*51
$GPGSA,A,3,15,22,26,21,18,,,,,,,,2.9,1.6,2.4*32
$GPRMC,204344.000,A,4221.1087,N,07102.9022,W,0.87,123.03,240308,,*13
$GPGGA,204345.000,4221.1090,N,07102.9024,W,1,05,1.6,23.6,M,-33.7,M,,0000*53
$GPGSA,A,3,15,22,26,21,18,,,,,,,,2.9,1.6,2.4*32
$GPRMC,204345.000,A,4221.1090,N,07102.9024,W,0.09,224.91,240308,,*1B
$GPGGA,204346.000,4221.1090,N,07102.9021,W,1,05,1.6,23.8,M,-33.7,M,,0000*5B
$GPGSA,A,3,15,22,26,21,18,,,,,,,,2.9,1.6,2.4*32
$GPRMC,204346.000,A,4221.1090,N,07102.9021,W,0.35,175.10,240308,,*1C
$GPGGA,204347.000,4221.1090,N,07102.9017,W,1,05,1.6,24.1,M,-33.7,M,,0000*51
$GPGSA,A,3,15,22,26,21,18,,,,,,,,2.9,1.6,2.4*32
$GPGSV,3,1,12,18,82,029,28,09,66,104,18,22,45,305,25,21,42,195,27*72
$GPGSV,3,2,12,14,27,257,20,15,25,063,28,24,12,167,19,26,11,062,21*7B
$GPGSV,3,3,12,12,06,136,,19,05,312,,32,04,298,,05,04,152,*77
$GPRMC,204347.000,A,4221.1090,N,07102.9017,W,0.73,143.84,240308,,*12
$GPGGA,204348.000,4221.1089,N,07102.9012,W,1,05,1.6,24.0,M,-33.7,M,,0000*52
$GPGSA,A,3,15,22,26,21,18,,,,,,,,2.9,1.6,2.4*32
$GPRMC,204348.000,A,4221.1089,N,07102.9012,W,1.19,123.63,240308,,*12
$GPGGA,204349.000,4221.1090,N,07102.9009,W,1,05,1.6,23.8,M,-33.7,M,,0000*5E
$GPGSA,A,3,15,22,26,21,18,,,,,,,,2.9,1.6,2.4*32
$GPRMC,204349.000,A,4221.1090,N,07102.9009,W,0.44,100.22,240308,,*1C
$GPGGA,204350.000,4221.1085,N,07102.9005,W,1,06,1.5,23.7,M,-33.7,M,,0000*51
$GPGSA,A,3,09,15,22,26,21,18,,,,,,,2.4,1.5,1.9*3B
$GPRMC,204350.000,A,4221.1085,N,07102.9005,W,0.07,215.23,240308,,*1D
$GPGGA,204351.000,4221.1089,N,07102.9011,W,1,05,1.6,23.3,M,-33.7,M,,0000*5D
$GPGSA,A,3,15,22,26,21,18,,,,,,,,2.9,1.6,2.4*32
$GPRMC,204351.000,A,4221.1089,N,07102.9011,W,0.29,334.14,240308,,*1F
$GPGGA,204352.000,4221.1093,N,07102.9012,W,1,05,1.6,24.0,M,-33.7,M,,0000*52
$GPGSA,A,3,15,22,26,21,18,,,,,,,,2.9,1.6,2.4*32
$GPGSV,3,1,12,18,82,029,27,09,66,104,18,22,45,305,25,21,42,195,27*7D
$GPGSV,3,2,12,14,27,257,20,15,25,063,26,24,12,167,19,26,11,062,21*75
$GPGSV,3,3,12,12,06,136,,19,05,312,,32,04,298,,05,04,152,*77
$GPRMC,204352.000,A,4221.1093,N,07102.9012,W,0.17,210.09,240308,,*12
$GPGGA,204353.000,4221.1097,N,07102.9016,W,1,05,1.6,24.5,M,-33.7,M,,0000*56
$GPGSA,A,3,15,22,26,21,18,,,,,,,,2.9,1.6,2.4*32
$GPRMC,204353.000,A,4221.1097,N,07102.9016,W,0.29,224.05,240308,,*15
$GPGGA,204354.000,4221.1103,N,07102.9024,W,1,05,1.6,24.2,M,-33.7,M,,0000*5B
$GPGSA,A,3,15,22,26,21,18,,,,,,,,2.9,1.6,2.4*32
$GPRMC,204354.000,A,4221.1103,N,07102.9024,W,0.26,206.35,240308,,*13
$GPGGA,204355.000,4221.1106,N,07102.9025,W,1,05,1.6,24.2,M,-33.7,M,,0000*5E
$GPGSA,A,3,15,22,26,21,18,,,,,,,,2.9,1.6,2.4*32
$GPRMC,204355.000,A,4221.1106,N,07102.9025,W,0.09,189.19,240308,,*11
$GPGGA,204356.000,4221.1113,N,07102.9032,W,1,05,1.6,24.0,M,-33.7,M,,0000*5D
$GPGSA,A,3,15,22,26,21,18,,,,,,,,2.9,1.6,2.4*32
$GPRMC,204356.000,A,4221.1113,N,07102.9032,W,0.09,58.82,240308,,*2F
$GPGGA,204357.000,4221.1119,N,07102.9036,W,1,05,1.6,24.6,M,-33.7,M,,0000*54
$GPGSA,A,3,15,22,26,21,18,,,,,,,,2.9,1.6,2.4*32
$GPGSV,3,1,12,18,82,029,27,09,66,104,18,22,45,305,26,21,42,195,27*7E
$GPGSV,3,2,12,14,27,257,20,15,25,063,27,24,12,167,19,26,11,062,20*75
$GPGSV,3,3,12,12,06,136,,19,05,312,,32,04,298,,05,04,152,*77
$GPRMC,204357.000,A,4221.1119,N,07102.9036,W,0.23,206.27,240308,,*1E
$GPGGA,204358.000,4221.1123,N,07102.9036,W,1,05,1.6,25.9,M,-33.7,M,,0000*5C
$GPGSA,A,3,15,22,26,21,18,,,,,,,,2.9,1.6,2.4*32
$GPRMC,204358.000,A,4221.1123,N,07102.9036,W,0.31,203.51,240308,,*1F
$GPGGA,204359.000,4221.1128,N,07102.9039,W,1,05,1.6,25.7,M,-33.7,M,,0000*57
$GPGSA,A,3,15,22,26,21,18,,,,,,,,2.9,1.6,2.4*32
$GPRMC,204359.000,A,4221.1128,N,07102.9039,W,0.30,212.85,240308,,*12
$GPGGA,204400.000,4221.1135,N,07102.9044,W,1,05,1.6,26.2,M,-33.7,M,,0000*5C
$GPGSA,A,3,15,22,26,21,18,,,,,,,,2.9,1.6,2.4*32
$GPRMC,204400.000,A,4221.1135,N,07102.9044,W,0.11,164.96,240308,,*1C
$GPGGA,204401.000,4221.1141,N,07102.9044,W,1,05,1.6,27.7,M,-33.7,M,,0000*5A
$GPGSA,A,3,15,22,26,21,18,,,,,,,,2.9,1.6,2.4*32
$GPRMC,204401.000,A,4221.1141,N,07102.9044,W,0.17,159.00,240308,,*19
$GPGGA,204402.000,4221.1148,N,07102.9046,W,1,05,1.6,28.7,M,-33.7,M,,0000*5D
$GPGSA,A,3,15,22,26,21,18,,,,,,,,2.9,1.6,2.4*32
$GPGSV,3,1,12,18,82,029,26,09,66,104,18,22,45,305,26,21,42,195,27*7F
$GPGSV,3,2,12,14,27,257,20,15,25,063,27,24,12,167,19,26,11,062,21*74
$GPGSV,3,3,12,12,06,136,,19,05,312,,32,04,298,,05,04,152,*77
$GPRMC,204402.000,A,4221.1148,N,07102.9046,W,0.22,211.33,240308,,*18
$GPGGA,204403.000,4221.1156,N,07102.9046,W,1,05,1.6,29.5,M,-33.7,M,,0000*50
$GPGSA,A,3,15,22,26,21,18,,,,,,,,2.9,1.6,2.4*32
$GPRMC,204403.000,A,4221.1156,N,07102.9046,W,0.45,40.23,240308,,*20
$GPGGA,204404.000,4221.1169,N,07102.9044,W,1,05,1.6,31.2,M,-33.7,M,,0000*57
$GPGSA,A,3,15,22,26,21,18,,,,,,,,2.9,1.6,2.4*32
$GPRMC,204404.000,A,4221.1169,N,07102.9044,W,0.71,75.98,240308,,*28
$GPGGA,204405.000,4221.1181,N,07102.9045,W,1,05,1.6,31.4,M,-33.7,M,,0000*57
$GPGSA,A,3,15,22,26,21,18,,,,,,,,2.9,1.6,2.4*32
$GPRMC,204405.000,A,4221.1181,N,07102.9045,W,0.58,71.46,240308,,*22
$GPGGA,204406.000,4221.1193,N,07102.9048,W,1,05,1.6,31.5,M,-33.7,M,,0000*5B
$GPGSA,A,3,15,22,26,21,18,,,,,,,,2.9,1.6,2.4*32
$GPRMC,204406.000,A,4221.1193,N,07102.9048,W,0.31,83.11,240308,,*2F
$GPGGA,204407.000,4221.1208,N,07102.9051,W,1,05,1.6,33.6,M,-33.7,M,,0000*52
$GPGSA,A,3,15,22,26,21,18,,,,,,,,2.9,1.6,2.4*32
$GPGSV,3,1,12,18,82,029,26,09,66,104,17,22,45,305,25,21,42,195,27*73
$GPGSV,3,2,12,14,27,257,19,15,25,063,26,24,12,167,20,26,11,062,22*76
$GPGSV,3,3,12,12,06,136,,19,05,312,,32,04,298,,05,04,152,*77
$GPRMC,204407.000,A,4221.1208,N,07102.9051,W,0.46,357.52,240308,,*1A
$GPGGA,204408.000,4221.1231,N,07102.9050,W,1,05,1.6,36.8,M,-33.7,M,,0000*5D
$GPGSA,A,3,15,22,26,21,18,,,,,,,,2.9,1.6,2.4*32
$GPRMC,204408.000,A,4221.1231,N,07102.9050,W,0.37,76.09,240308,,*26
$GPGGA,204409.000,4221.1253,N,07102.9049,W,1,06,1.5,40.1,M,-33.7,M,,0000*58
$GPGSA,A,3,09,15,22,26,21,18,,,,,,,2.4,1.5,1.9*3B
$GPRMC,204409.000,A,4221.1253,N,07102.9049,W,0.07,243.16,240308,,*12
$GPGGA,204410.000,4221.1261,N,07102.9054,W,1,06,1.5,41.7,M,-33.7,M,,0000*5A
$GPGSA,A,3,09,15,22,26,21,18,,,,,,,2.4,1.5,1.9*3B
$GPRMC,204410.000,A,4221.1261,N,07102.9054,W,1.27,23.20,240308,,*25
$GPGGA,204411.000,4221.1285,N,07102.9061,W,1,06,1.5,43.9,M,-33.7,M,,0000*5B
$GPGSA,A,3,09,15,22,26,21,18,,,,,,,2.4,1.5,1.9*3B
$GPRMC,204411.000,A,4221.1285,N,07102.9061,W,3.28,353.00,240308,,*13
$GPGGA,204412.000,4221.1298,N,07102.9068,W,1,06,1.5,44.4,M,-33.7,M,,0000*57
$GPGSA,A,3,09,15,22,26,21,18,,,,,,,2.4,1.5,1.9*3B
$GPGSV,3,1,12,18,82,029,23,09,66,104,16,22,45,305,25,21,42,195,26*76
$GPGSV,3,2,12,14,27,257,19,15,25,063,22,24,12,167,20,26,11,062,22*72
$GPGSV,3,3,12,12,06,136,,19,05,312,,32,04,298,,05,04,152,*77
$GPRMC,204412.000,A,4221.1298,N,07102.9068,W,2.72,347.04,240308,,*1A
$GPGGA,204413.000,4221.1308,N,07102.9080,W,1,06,1.5,43.8,M,-33.7,M,,0000*53
$GPGSA,A,3,09,15,22,26,21,18,,,,,,,2.4,1.5,1.9*3B
$GPRMC,204413.000,A,4221.1308,N,07102.9080,W,2.07,335.17,240308,,*10
$GPGGA,204414.000,4221.1322,N,07102.9096,W,1,06,1.5,43.6,M,-33.7,M,,0000*55
$GPGSA,A,3,09,15,22,26,21,18,,,,,,,2.4,1.5,1.9*3B
$GPRMC,204414.000,A,4221.1322,N,07102.9096,W,2.77,319.48,240308,,*1B
$GPGGA,204415.000,4221.1332,N,07102.9111,W,1,06,1.5,42.7,M,-33.7,M,,0000*5B
$GPGSA,A,3,09,15,22,26,21,18,,,,,,,2.4,1.5,1.9*3B
$GPRMC,204415.000,A,4221.1332,N,07102.9111,W,2.42,314.10,240308,,*13
$GPGGA,204416.000,4221.1334,N,07102.9118,W,1,06,1.5,42.0,M,-33.7,M,,0000*50
$GPGSA,A,3,09,15,22,26,21,18,,,,,,,2.4,1.5,1.9*3B
$GPRMC,204416.000,A,4221.1334,N,07102.9118,W,1.05,295.14,240308,,*13
$GPGGA,204417.000,4221.1331,N,07102.9121,W,1,06,1.5,42.1,M,-33.7,M,,0000*5F
$GPGSA,A,3,09,15,22,26,21,18,,,,,,,2.4,1.5,1.9*3B
$GPGSV,3,1,12,18,82,029,24,09,66,104,16,22,45,305,25,21,42,195,26*71
$GPGSV,3,2,12,14,27,257,19,15,25,063,23,24,12,167,20,26,11,062,23*72
$GPGSV,3,3,12,12,06,136,,19,05,312,,32,04,298,,05,04,152,*77
$GPRMC,204417.000,A,4221.1331,N,07102.9121,W,0.45,290.84,240308,,*14
$GPGGA,204418.000,4221.1334,N,07102.9123,W,1,06,1.5,41.4,M,-33.7,M,,0000*51
$GPGSA,A,3,09,15,22,26,21,18,,,,,,,2.4,1.5,1.9*3B
$GPRMC,204418.000,A,4221.1334,N,07102.9123,W,0.34,293.04,240308,,*11
$GPGGA,204419.000,4221.1331,N,07102.9124,W,1,06,1.5,40.4,M,-33.7,M,,0000*53
$GPGSA,A,3,09,15,22,26,21,18,,,,,,,2.4,1.5,1.9*3B
$GPRMC,204419.000,A,4221.1331,N,07102.9124,W,0.90,319.37,240308,,*1F
$GPGGA,204420.000,4221.1337,N,07102.9129,W,1,05,1.6,40.9,M,-33.7,M,,0000*5F
$GPGSA,A,3,15,22,26,21,18,,,,,,,,2.9,1.6,2.4*32
$GPRMC,204420.000,A,4221.1337,N,07102.9129,W,1.72,329.22,240308,,*14
$GPGGA,204421.000,4221.1337,N,07102.9132,W,1,05,1.6,39.4,M,-33.7,M,,0000*57
$GPGSA,A,3,15,22,26,21,18,,,,,,,,2.9,1.6,2.4*32
$GPRMC,204421.000,A,4221.1337,N,07102.9132,W,0.49,293.00,240308,,*16
$GPGGA,204422.000,4221.1345,N,07102.9151,W,1,05,1.6,38.3,M,-33.7,M,,0000*52
$GPGSA,A,3,15,22,26,21,18,,,,,,,,2.9,1.6,2.4*32
$GPGSV,3,1,12,18,82,029,24,09,66,104,17,22,45,305,25,21,42,195,26*70
$GPGSV,3,2,12,14,27,257,19,15,25,063,23,24,12,167,20,26,11,062,23*72
$GPGSV,3,3,12,12,06,136,,19,05,312,,32,04,298,,05,04,152,*77
$GPRMC,204422.000,A,4221.1345,N,07102.9151,W,2.55,304.49,240308,,*18
$GPGGA,204423.000,4221.1340,N,07102.9153,W,1,06,1.5,36.8,M,-33.7,M,,0000*51
$GPGSA,A,3,09,15,22,26,21,18,,,,,,,2.4,1.5,1.9*3B
$GPRMC,204423.000,A,4221.1340,N,07102.9153,W,1.03,309.25,240308,,*19
$GPGGA,204424.000,4221.1331,N,07102.9153,W,1,06,1.5,35.9,M,-33.7,M,,0000*52
$GPGSA,A,3,09,15,22,26,21,18,,,,,,,2.4,1.5,1.9*3B
$GPRMC,204424.000,A,4221.1331,N,07102.9153,W,0.63,154.80,240308,,*1A
$GPGGA,204425.000,4221.1323,N,07102.9149,W,1,06,1.5,35.3,M,-33.7,M,,0000*51
$GPGSA,A,3,09,15,22,26,21,18,,,,,,,2.4,1.5,1.9*3B
$GPRMC,204425.000,A,4221.1323,N,07102.9149,W,0.71,147.12,240308,,*19
$GPGGA,204426.000,4221.1320,N,07102.9147,W,1,06,1.5,33.3,M,-33.7,M,,0000*59
$GPGSA,A,3,09,15,22,26,21,18,,,,,,,2.4,1.5,1.9*3B
$GPRMC,204426.000,A,4221.1320,N,07102.9147,W,0.53,125.98,240308,,*11
$GPGGA,204427.000,4221.1317,N,07102.9131,W,1,06,1.5,35.1,M,-33.7,M,,0000*59
$GPGSA,A,3,09,15,22,26,21,18,,,,,,,2.4,1.5,1.9*3B
$GPGSV,3,1,12,18,82,029,24,09,66,104,17,22,45,305,25,21,42,195,26*70
$GPGSV,3,2,12,14,27,257,19,15,25,063,23,24,12,167,21,26,11,062,23*73
$GPGSV,3,3,12,12,06,136,,19,05,312,,32,04,298,,05,04,152,*77
$GPRMC,204427.000,A,4221.1317,N,07102.9131,W,1.34,121.62,240308,,*14
$GPGGA,204428.000,4221.1312,N,07102.9122,W,1,06,1.5,35.2,M,-33.7,M,,0000*52
$GPGSA,A,3,09,15,22,26,21,18,,,,,,,2.4,1.5,1.9*3B
$GPRMC,204428.000,A,4221.1312,N,07102.9122,W,0.69,105.97,240308,,*19
$GPGGA,204429.000,4221.1307,N,07102.9117,W,1,06,1.5,34.6,M,-33.7,M,,0000*54
$GPGSA,A,3,09,15,22,26,21,18,,,,,,,2.4,1.5,1.9*3B
$GPRMC,204429.000,A,4221.1307,N,07102.9117,W,0.61,188.08,240308,,*11
$GPGGA,204430.000,4221.1306,N,07102.9116,W,1,06,1.5,32.8,M,-33.7,M,,0000*54
$GPGSA,A,3,09,15,22,26,21,18,,,,,,,2.4,1.5,1.9*3B
$GPRMC,204430.000,A,4221.1306,N,07102.9116,W,0.61,191.22,240308,,*19
$GPGGA,204431.000,4221.1306,N,07102.9118,W,1,06,1.5,31.9,M,-33.7,M,,0000*59
$GPGSA,A,3,09,15,22,26,21,18,,,,,,,2.4,1.5,1.9*3B
$GPRMC,204431.000,A,4221.1306,N,07102.9118,W,0.38,232.58,240308,,*1D
$GPGGA,204432.000,4221.1312,N,07102.9117,W,1,06,1.5,32.9,M,-33.7,M,,0000*53
$GPGSA,A,3,09,15,22,26,21,18,,,,,,,2.4,1.5,1.9*3B
$GPGSV,3,1,12,18,82,029,24,09,66,104,17,22,45,305,25,21,42,195,25*73
$GPGSV,3,2,12,14,27,257,20,15,25,063,23,24,12,167,20,26,11,062,23*78
$GPGSV,3,3,12,12,06,136,,19,05,312,,32,04,298,,05,04,152,*77
$GPRMC,204432.000,A,4221.1312,N,07102.9117,W,1.05,318.11,240308,,*1F
$GPGGA,204433.000,4221.1319,N,07102.9119,W,1,06,1.5,33.2,M,-33.7,M,,0000*5D
$GPGSA,A,3,09,15,22,26,21,18,,,,,,,2.4,1.5,1.9*3B
$GPRMC,204433.000,A,4221.1319,N,07102.9119,W,1.05,298.67,240308,,*13
$GPGGA,204434.000,4221.1324,N,07102.9120,W,1,06,1.5,32.7,M,-33.7,M,,0000*5A
$GPGSA,A,3,09,15,22,26,21,18,,,,,,,2.4,1.5,1.9*3B
$GPRMC,204434.000,A,4221.1324,N,07102.9120,W,0.46,351.97,240308,,*1D
$GPGGA,204435.000,4221.1327,N,07102.9118,W,1,06,1.5,33.0,M,-33.7,M,,0000*55
$GPGSA,A,3,09,15,22,26,21,18,,,,,,,2.4,1.5,1.9*3B
$GPRMC,204435.000,A,4221.1327,N,07102.9118,W,0.32,339.23,240308,,*16
$GPGGA,204436.000,4221.1333,N,07102.9120,W,1,06,1.5,33.6,M,-33.7,M,,0000*5E
$GPGSA,A,3,09,15,22,26,21,18,,,,,,,2.4,1.5,1.9*3B
$GPRMC,204436.000,A,4221.1333,N,07102.9120,W,0.24,335.43,240308,,*16
$GPGGA,204437.000,4221.1337,N,07102.9122,W,1,06,1.5,33.0,M,-33.7,M,,0000*5F
$GPGSA,A,3,09,15,22,26,21,18,,,,,,,2.4,1.5,1.9*3B
$GPGSV,3,1,12,18,82,029,24,09,66,104,17,22,45,305,24,21,42,195,25*72
$GPGSV,3,2,12,14,27,257,19,15,25,063,23,24,12,167,20,26,11,062,22*73
$GPGSV,3,3,12,12,06,136,,19,05,312,,32,04,298,,05,04,152,*77
$GPRMC,204437.000,A,4221.1337,N,07102.9122,W,0.51,50.99,240308,,*24
$GPGGA,204438.000,4221.1337,N,07102.9131,W,1,06,1.5,30.3,M,-33.7,M,,0000*52
$GPGSA,A,3,09,15,22,26,21,18,,,,,,,2.4,1.5,1.9*3B
$GPRMC,204438.000,A,4221.1337,N,07102.9131,W,0.49,55.61,240308,,*22

